time,.header.seq,.header.stamp.secs,.header.stamp.nsecs,.header.frame_id,.pose.position.x,.pose.position.y,.pose.position.z,.pose.orientation.x,.pose.orientation.y,.pose.orientation.z,.pose.orientation.w
2023/12/29/17:12:31.374778,0,1703862751,374112663,world,2.26033878326416,0.7023672461509705,0.8368927836418152,-0.5380483865737915,-0.6806912422180176,0.11621011793613434,-0.48338237404823303
2023/12/29/17:12:31.383786,0,1703862751,383556611,world,2.2603743076324463,0.7024044394493103,0.8369080424308777,-0.537869930267334,-0.6805732250213623,0.11522460728883743,-0.4839829206466675
2023/12/29/17:12:31.383831,0,1703862751,383618719,world,2.260366439819336,0.7023918628692627,0.8369042277336121,-0.537855863571167,-0.6806489825248718,0.11524426192045212,-0.48388728499412537
2023/12/29/17:12:31.393847,0,1703862751,393616519,world,2.260352611541748,0.7023934125900269,0.8368849754333496,-0.538047730922699,-0.6804999709129333,0.11506179720163345,-0.4839269518852234
2023/12/29/17:12:31.393948,0,1703862751,393763021,world,2.2603418827056885,0.7023909687995911,0.8368922472000122,-0.5381952524185181,-0.680547833442688,0.11527363210916519,-0.48364514112472534
2023/12/29/17:12:31.394040,0,1703862751,393893882,world,2.2603774070739746,0.7024102807044983,0.8369024991989136,-0.5378982424736023,-0.6805576682090759,0.11485341191291809,-0.4840615391731262
2023/12/29/17:12:31.403908,0,1703862751,403629403,world,2.2603700160980225,0.7024176716804504,0.836902379989624,-0.5378498435020447,-0.6806126236915588,0.1151861697435379,-0.4839589595794678
2023/12/29/17:12:31.404009,0,1703862751,403719992,world,2.2603495121002197,0.7023940086364746,0.8368833065032959,-0.5379089713096619,-0.68063884973526,0.11517732590436935,-0.48385828733444214
2023/12/29/17:12:31.413828,0,1703862751,413576831,world,2.2603659629821777,0.702436625957489,0.8369198441505432,-0.5376625061035156,-0.6805513501167297,0.11558816581964493,-0.4841572642326355
2023/12/29/17:12:31.413869,0,1703862751,413668595,world,2.2603557109832764,0.7024219036102295,0.8369090557098389,-0.5377236604690552,-0.6806386709213257,0.11590024828910828,-0.4838919937610626
2023/12/29/17:12:31.424434,0,1703862751,423889421,world,2.260354518890381,0.7024322152137756,0.8369084000587463,-0.5376965999603271,-0.6805944442749023,0.11592933535575867,-0.4839772582054138
2023/12/29/17:12:31.424551,0,1703862751,424089645,world,2.260390520095825,0.7024795413017273,0.8369643092155457,-0.5373334288597107,-0.6804642677307129,0.11580328643321991,-0.48459354043006897
2023/12/29/17:12:31.424608,0,1703862751,424218423,world,2.260380744934082,0.7024643421173096,0.8369805812835693,-0.5370604991912842,-0.6805463433265686,0.11640072613954544,-0.48463764786720276
2023/12/29/17:12:31.433787,0,1703862751,433537495,world,2.260373115539551,0.7024753093719482,0.8369776606559753,-0.5372433662414551,-0.6807103753089905,0.1168064996600151,-0.48410657048225403
2023/12/29/17:12:31.433852,0,1703862751,433614873,world,2.260352611541748,0.7024948000907898,0.8369957804679871,-0.5374318361282349,-0.6805013418197632,0.11715461313724518,-0.4841073155403137
2023/12/29/17:12:31.443740,0,1703862751,443575244,world,2.2603821754455566,0.7025221586227417,0.8370397090911865,-0.5368964672088623,-0.6806447505950928,0.11676739901304245,-0.484593003988266
2023/12/29/17:12:31.443825,0,1703862751,443658184,world,2.260380268096924,0.7025032043457031,0.8370153307914734,-0.5369065403938293,-0.6806031465530396,0.11695608496665955,-0.48459482192993164
2023/12/29/17:12:31.443889,0,1703862751,443731138,world,2.260344982147217,0.7025129795074463,0.8370218873023987,-0.5371878147125244,-0.6805388927459717,0.11785536259412766,-0.4841550886631012
2023/12/29/17:12:31.453976,0,1703862751,453744942,world,2.2603793144226074,0.7025110721588135,0.8370600342750549,-0.5364744663238525,-0.6805266737937927,0.11739636957645416,-0.48507407307624817
2023/12/29/17:12:31.454248,0,1703862751,453815721,world,2.2603635787963867,0.7024993300437927,0.8370230197906494,-0.5370245575904846,-0.6805323362350464,0.11752811074256897,-0.48442503809928894
2023/12/29/17:12:31.463749,0,1703862751,463544293,world,2.2603511810302734,0.7025026082992554,0.8370227217674255,-0.53701251745224,-0.6804871559143066,0.11735039949417114,-0.4845448136329651
2023/12/29/17:12:31.463796,0,1703862751,463608003,world,2.260366678237915,0.7024805545806885,0.8370246291160583,-0.5367404818534851,-0.6806349158287048,0.11700001358985901,-0.48472344875335693
2023/12/29/17:12:31.473926,0,1703862751,473708689,world,2.2603635787963867,0.7024771571159363,0.8370203971862793,-0.5369442105293274,-0.6805357336997986,0.11728636175394058,-0.48456788063049316
2023/12/29/17:12:31.474059,0,1703862751,473812204,world,2.2603347301483154,0.7024552226066589,0.8369974493980408,-0.5372569561004639,-0.6805763840675354,0.11763797700405121,-0.48407867550849915
2023/12/29/17:12:31.474162,0,1703862751,473911298,world,2.2603375911712646,0.7024462819099426,0.8369818329811096,-0.53737473487854,-0.6806183457374573,0.11706939339637756,-0.4840266704559326
2023/12/29/17:12:31.483733,0,1703862751,483553704,world,2.2603652477264404,0.7024416923522949,0.8369869589805603,-0.5371191501617432,-0.6805774569511414,0.11648301035165787,-0.484509140253067
2023/12/29/17:12:31.483822,0,1703862751,483633392,world,2.260338544845581,0.7024173736572266,0.8369523882865906,-0.5375704169273376,-0.6806259751319885,0.11633667349815369,-0.4839753806591034
2023/12/29/17:12:31.493997,0,1703862751,493670156,world,2.2603342533111572,0.7023971676826477,0.8369259238243103,-0.537757933139801,-0.6806199550628662,0.11658046394586563,-0.48371678590774536
2023/12/29/17:12:31.494164,0,1703862751,493795338,world,2.2603323459625244,0.7023712396621704,0.8369159698486328,-0.5379260778427124,-0.6805811524391174,0.11653365939855576,-0.48359569907188416
2023/12/29/17:12:31.494232,0,1703862751,494034446,world,2.260331869125366,0.7023493647575378,0.8368960022926331,-0.5379852056503296,-0.6805650591850281,0.11565038561820984,-0.48376452922821045
2023/12/29/17:12:31.503820,0,1703862751,503642630,world,2.260308265686035,0.7023344039916992,0.8368479013442993,-0.538707435131073,-0.6804607510566711,0.11564916372299194,-0.48310741782188416
2023/12/29/17:12:31.503866,0,1703862751,503725590,world,2.2603261470794678,0.7023218274116516,0.8368674516677856,-0.5382179021835327,-0.6804766654968262,0.11491579562425613,-0.48380517959594727
2023/12/29/17:12:31.513793,0,1703862751,513631703,world,2.2603166103363037,0.7023204565048218,0.8368428945541382,-0.5386612415313721,-0.6804484128952026,0.11481325328350067,-0.48337557911872864
2023/12/29/17:12:31.513837,0,1703862751,513674140,world,2.2603211402893066,0.7022928595542908,0.8368237018585205,-0.5384753346443176,-0.6805223822593689,0.11446521431207657,-0.4835611879825592
2023/12/29/17:12:31.524447,0,1703862751,523970299,world,2.2603278160095215,0.7023062109947205,0.8368133306503296,-0.5385292768478394,-0.6806238293647766,0.114402174949646,-0.48337310552597046
2023/12/29/17:12:31.524570,0,1703862751,524115366,world,2.260329484939575,0.702276885509491,0.8367938995361328,-0.5387198328971863,-0.680658757686615,0.11412522941827774,-0.48317715525627136
2023/12/29/17:12:31.524664,0,1703862751,524222077,world,2.2603201866149902,0.7022697329521179,0.8368163704872131,-0.538565456867218,-0.6807315945625305,0.11451782286167145,-0.48315364122390747
2023/12/29/17:12:31.533771,0,1703862751,533529712,world,2.260303020477295,0.7022387385368347,0.8367741703987122,-0.5388777852058411,-0.6805686354637146,0.11414740979671478,-0.4831225872039795
2023/12/29/17:12:31.533878,0,1703862751,533564358,world,2.2603046894073486,0.7022339701652527,0.8367743492126465,-0.5388965010643005,-0.6806246042251587,0.11447641253471375,-0.482945054769516
2023/12/29/17:12:31.543706,0,1703862751,543499819,world,2.2603325843811035,0.7022687792778015,0.8368121981620789,-0.5385872721672058,-0.6806254982948303,0.11403532326221466,-0.4833928346633911
2023/12/29/17:12:31.543749,0,1703862751,543567094,world,2.2603371143341064,0.702250063419342,0.8368045091629028,-0.5386013984680176,-0.680630087852478,0.11418516933917999,-0.4833354353904724
2023/12/29/17:12:31.543783,0,1703862751,543656781,world,2.260310173034668,0.7022488713264465,0.8368178606033325,-0.5385271310806274,-0.6805941462516785,0.11491808295249939,-0.48329511284828186
2023/12/29/17:12:31.554124,0,1703862751,553671075,world,2.2603211402893066,0.7022356390953064,0.8367736339569092,-0.5386559367179871,-0.6805582642555237,0.11547940224409103,-0.48306798934936523
2023/12/29/17:12:31.554196,0,1703862751,553813627,world,2.2603371143341064,0.702267050743103,0.8368639349937439,-0.5380775928497314,-0.6807504892349243,0.11576178669929504,-0.48337408900260925
2023/12/29/17:12:31.563987,0,1703862751,563685658,world,2.260354518890381,0.7022807598114014,0.8369055390357971,-0.5376423001289368,-0.6807629466056824,0.11579042673110962,-0.4838339388370514
2023/12/29/17:12:31.564050,0,1703862751,563738888,world,2.260349988937378,0.7022871971130371,0.8369380235671997,-0.537392795085907,-0.6807065606117249,0.1171337142586708,-0.4838671088218689
2023/12/29/17:12:31.574066,0,1703862751,573583056,world,2.260359525680542,0.7023327946662903,0.8369961380958557,-0.5373014807701111,-0.6807878613471985,0.11703384667634964,-0.4838782846927643
2023/12/29/17:12:31.574175,0,1703862751,573642503,world,2.2603702545166016,0.7023667693138123,0.8370435237884521,-0.5369694232940674,-0.6807460784912109,0.11704844236373901,-0.48430192470550537
2023/12/29/17:12:31.574244,0,1703862751,573700501,world,2.2603399753570557,0.7023603320121765,0.8370414972305298,-0.5372008085250854,-0.6807100772857666,0.11768737435340881,-0.4839409589767456
2023/12/29/17:12:31.584085,0,1703862751,583675263,world,2.2603507041931152,0.7023898363113403,0.8370755910873413,-0.5369712114334106,-0.6806353330612183,0.1181102767586708,-0.4841976463794708
2023/12/29/17:12:31.584148,0,1703862751,583825726,world,2.2603819370269775,0.7024332880973816,0.8371073603630066,-0.5364892482757568,-0.6807382702827454,0.11813291907310486,-0.4845816195011139
2023/12/29/17:12:31.593961,0,1703862751,593585985,world,2.2603423595428467,0.7023574709892273,0.8370839357376099,-0.536318838596344,-0.6806310415267944,0.1195308268070221,-0.4845781922340393
2023/12/29/17:12:31.594083,0,1703862751,593657123,world,2.260345220565796,0.7024258971214294,0.8371008038520813,-0.5363799929618835,-0.6806438565254211,0.11861997842788696,-0.4847163259983063
2023/12/29/17:12:31.594114,0,1703862751,593716046,world,2.260350465774536,0.7024416923522949,0.8371320962905884,-0.53604656457901,-0.6806483864784241,0.11880218237638474,-0.4850340187549591
2023/12/29/17:12:31.603954,0,1703862751,603634082,world,2.26035213470459,0.7024474143981934,0.8371367454528809,-0.5361807942390442,-0.6807809472084045,0.11910665035247803,-0.4846246540546417
2023/12/29/17:12:31.603989,0,1703862751,603731386,world,2.2603602409362793,0.7024558782577515,0.8371167778968811,-0.5365540981292725,-0.6805908679962158,0.11875808984041214,-0.4845641255378723
2023/12/29/17:12:31.613984,0,1703862751,613619909,world,2.2603635787963867,0.7024709582328796,0.8371408581733704,-0.5362380743026733,-0.6805591583251953,0.11872982233762741,-0.4849652647972107
2023/12/29/17:12:31.614099,0,1703862751,613739158,world,2.2603378295898438,0.7024292349815369,0.837087094783783,-0.5368127226829529,-0.680630087852478,0.11864744871854782,-0.48424965143203735
2023/12/29/17:12:31.624264,0,1703862751,623760219,world,2.260319232940674,0.7024142742156982,0.837051510810852,-0.5370807647705078,-0.6804812550544739,0.11817820370197296,-0.48427626490592957
2023/12/29/17:12:31.624487,0,1703862751,623912213,world,2.260312795639038,0.702390193939209,0.8370051980018616,-0.5375055074691772,-0.6805116534233093,0.11777915805578232,-0.4838593900203705
2023/12/29/17:12:31.624641,0,1703862751,624068060,world,2.2603323459625244,0.7024003267288208,0.8370052576065063,-0.5373026728630066,-0.6806010007858276,0.11750637739896774,-0.48402518033981323
2023/12/29/17:12:31.634073,0,1703862751,633653289,world,2.26029634475708,0.7023476362228394,0.8369681239128113,-0.5375267863273621,-0.6805044412612915,0.11739084124565125,-0.4839402735233307
2023/12/29/17:12:31.634259,0,1703862751,633718297,world,2.2603161334991455,0.7023569941520691,0.8369346857070923,-0.5379891991615295,-0.6805757880210876,0.11657685041427612,-0.48352256417274475
2023/12/29/17:12:31.644094,0,1703862751,643682069,world,2.2603507041931152,0.7023418545722961,0.8369113802909851,-0.5378293395042419,-0.6805227994918823,0.11569525301456451,-0.4839865565299988
2023/12/29/17:12:31.644155,0,1703862751,643794719,world,2.260328769683838,0.7023112773895264,0.8368379473686218,-0.5384779572486877,-0.6805105209350586,0.11506868153810501,-0.48343175649642944
2023/12/29/17:12:31.644188,0,1703862751,643919040,world,2.2603228092193604,0.7022836804389954,0.8368148803710938,-0.5385445356369019,-0.6804938316345215,0.11495433747768402,-0.483408123254776
2023/12/29/17:12:31.654423,0,1703862751,653858040,world,2.260345458984375,0.7022683024406433,0.8367816805839539,-0.5385194420814514,-0.6806336045265198,0.11459226161241531,-0.483325332403183
2023/12/29/17:12:31.654636,0,1703862751,654345148,world,2.2603468894958496,0.7022377252578735,0.8367447257041931,-0.5387710928916931,-0.6806448101997375,0.11403314769268036,-0.4831613302230835
2023/12/29/17:12:31.664097,0,1703862751,663691052,world,2.260282278060913,0.7021996378898621,0.8366900682449341,-0.5400734543800354,-0.680737316608429,0.11526250839233398,-0.48128172755241394
2023/12/29/17:12:31.664250,0,1703862751,663755642,world,2.2602450847625732,0.7021077275276184,0.8366380333900452,-0.5406567454338074,-0.6805939674377441,0.11645573377609253,-0.4805416166782379
2023/12/29/17:12:31.674119,0,1703862751,673666499,world,2.2602672576904297,0.7021148800849915,0.8366347551345825,-0.54056715965271,-0.680541455745697,0.11561830341815948,-0.48091891407966614
2023/12/29/17:12:31.674266,0,1703862751,673749467,world,2.260345220565796,0.702139675617218,0.8366613984107971,-0.5394747257232666,-0.6806082129478455,0.11375090479850769,-0.48249372839927673
2023/12/29/17:12:31.674413,0,1703862751,673872198,world,2.2603213787078857,0.7021951675415039,0.8366697430610657,-0.5405118465423584,-0.6808038353919983,0.11447539925575256,-0.4808831810951233
2023/12/29/17:12:31.684096,0,1703862751,683700915,world,2.2603611946105957,0.7021352052688599,0.8366678953170776,-0.5392014980316162,-0.6806941032409668,0.11393796652555466,-0.48263388872146606
2023/12/29/17:12:31.684184,0,1703862751,683839829,world,2.260361433029175,0.7021618485450745,0.8366897702217102,-0.5392216444015503,-0.6805022358894348,0.1139303594827652,-0.48288363218307495
2023/12/29/17:12:31.694083,0,1703862751,693677980,world,2.2603530883789062,0.7021770477294922,0.8366819620132446,-0.5392737984657288,-0.6805323958396912,0.11412936449050903,-0.48273593187332153
2023/12/29/17:12:31.694315,0,1703862751,693831542,world,2.2603650093078613,0.7022189497947693,0.8367416858673096,-0.5388873815536499,-0.680708646774292,0.11404415220022202,-0.4829390347003937
2023/12/29/17:12:31.694459,0,1703862751,694114751,world,2.260364055633545,0.7022411227226257,0.8367801904678345,-0.5388581156730652,-0.6806825399398804,0.11440643668174744,-0.4829227924346924
2023/12/29/17:12:31.704005,0,1703862751,703594626,world,2.260349988937378,0.7022407054901123,0.8368213176727295,-0.538507878780365,-0.6807513236999512,0.11553534120321274,-0.48294782638549805
2023/12/29/17:12:31.704081,0,1703862751,703665570,world,2.260390043258667,0.702307939529419,0.8368911147117615,-0.5375774502754211,-0.6806917190551758,0.11529184877872467,-0.48412519693374634
2023/12/29/17:12:31.714113,0,1703862751,713656825,world,2.260347366333008,0.7022643685340881,0.836898148059845,-0.5376474857330322,-0.6805947422981262,0.11705044656991959,-0.48376157879829407
2023/12/29/17:12:31.714190,0,1703862751,713786472,world,2.2603862285614014,0.7023566365242004,0.8369743227958679,-0.537475049495697,-0.6807955503463745,0.1168433129787445,-0.4837207794189453
2023/12/29/17:12:31.724034,0,1703862751,723648597,world,2.2603726387023926,0.7023323774337769,0.8370068669319153,-0.5369006395339966,-0.6806883215904236,0.11787817627191544,-0.4842579960823059
2023/12/29/17:12:31.724134,0,1703862751,723741076,world,2.2603325843811035,0.7023611068725586,0.8370306491851807,-0.5370007157325745,-0.6808637976646423,0.11833575367927551,-0.48378869891166687
2023/12/29/17:12:31.724189,0,1703862751,723851558,world,2.26035213470459,0.702411949634552,0.8370900750160217,-0.5366641283035278,-0.6807900667190552,0.11917023360729218,-0.4840608835220337
2023/12/29/17:12:31.734057,0,1703862751,733779691,world,2.260356903076172,0.7023912072181702,0.837086021900177,-0.5365461707115173,-0.6805936098098755,0.11961586028337479,-0.484358012676239
2023/12/29/17:12:31.734189,0,1703862751,733919116,world,2.2603681087493896,0.7024387717247009,0.8371440768241882,-0.5362065434455872,-0.6808241009712219,0.1194833293557167,-0.4844428598880768
2023/12/29/17:12:31.744035,0,1703862751,743660029,world,2.2603752613067627,0.7024787664413452,0.8371735215187073,-0.5360568165779114,-0.6806200742721558,0.11971860378980637,-0.484837144613266
2023/12/29/17:12:31.744184,0,1703862751,743751890,world,2.26125431060791,0.7084922790527344,0.8405311703681946,-0.5286262035369873,-0.6830886006355286,0.009341157041490078,-0.503842294216156
2023/12/29/17:12:31.744247,0,1703862751,743911418,world,2.262632131576538,0.7083756923675537,0.8409100770950317,-0.5296431183815002,-0.6804086565971375,0.0075312270782887936,-0.5064243674278259
2023/12/29/17:12:31.754143,0,1703862751,753727631,world,2.261215925216675,0.7085012793540955,0.8405473232269287,-0.5286996364593506,-0.6831450462341309,0.008793368004262447,-0.503698468208313
2023/12/29/17:12:31.754296,0,1703862751,753979793,world,2.2626607418060303,0.708354115486145,0.8409016728401184,-0.5303930044174194,-0.6800053119659424,0.007591529283672571,-0.5061802864074707
2023/12/29/17:12:31.763872,0,1703862751,763599476,world,2.2626490592956543,0.7084034085273743,0.8409229516983032,-0.5301046967506409,-0.6802535653114319,0.0067203775979578495,-0.5061611533164978
2023/12/29/17:12:31.764020,0,1703862751,763742294,world,2.26267671585083,0.7083555459976196,0.8408857583999634,-0.530645489692688,-0.6799226999282837,0.007666879333555698,-0.506025493144989
2023/12/29/17:12:31.773936,0,1703862751,773641128,world,2.262669563293457,0.7082909941673279,0.8408135175704956,-0.5309765338897705,-0.6797065734863281,0.008457116782665253,-0.5059558749198914
2023/12/29/17:12:31.774190,0,1703862751,773817003,world,2.262657642364502,0.7082722783088684,0.8407919406890869,-0.53135085105896,-0.6796839833259583,0.007339018397033215,-0.5056107044219971
2023/12/29/17:12:31.774346,0,1703862751,774050610,world,2.2626445293426514,0.7082433700561523,0.8407336473464966,-0.5315061807632446,-0.6796123385429382,0.007930085062980652,-0.5055347681045532
2023/12/29/17:12:31.784133,0,1703862751,783699963,world,2.2626841068267822,0.7081759572029114,0.8406793475151062,-0.5321934223175049,-0.6792485117912292,0.00824566651135683,-0.5052956938743591
2023/12/29/17:12:31.784262,0,1703862751,783762359,world,2.262685775756836,0.7081373929977417,0.8406414985656738,-0.5325590968132019,-0.6790387034416199,0.007997428998351097,-0.5051963329315186
2023/12/29/17:12:31.794177,0,1703862751,793739942,world,2.2626888751983643,0.7080733180046082,0.8405786752700806,-0.5331569910049438,-0.678678572177887,0.007737687788903713,-0.505053699016571
2023/12/29/17:12:31.794414,0,1703862751,793921744,world,2.2626609802246094,0.7080352902412415,0.840552806854248,-0.5335355997085571,-0.678703784942627,0.007116745226085186,-0.5046289563179016
2023/12/29/17:12:31.794477,0,1703862751,794208335,world,2.262728691101074,0.7079012393951416,0.8404490947723389,-0.5348029136657715,-0.6778655052185059,0.008701912127435207,-0.5043892860412598
2023/12/29/17:12:31.804129,0,1703862751,803774115,world,2.260366439819336,0.7023147940635681,0.836812436580658,-0.5385748744010925,-0.6805827617645264,0.11471259593963623,-0.4833067059516907
2023/12/29/17:12:31.804235,0,1703862751,804024747,world,2.2603697776794434,0.7022641897201538,0.8367601633071899,-0.5388131737709045,-0.6806210279464722,0.11422917246818542,-0.48310157656669617
2023/12/29/17:12:31.814268,0,1703862751,813793313,world,2.2603859901428223,0.7022603750228882,0.836747944355011,-0.5390210151672363,-0.68072509765625,0.11397173255681992,-0.4827837646007538
2023/12/29/17:12:31.814356,0,1703862751,814053529,world,2.260366678237915,0.7022164463996887,0.8366835713386536,-0.5392792224884033,-0.6809061765670776,0.11383569985628128,-0.4822719693183899
2023/12/29/17:12:31.824085,0,1703862751,823645076,world,2.2603635787963867,0.7022249102592468,0.8366701006889343,-0.5395581126213074,-0.6807568073272705,0.11332517862319946,-0.48229101300239563
2023/12/29/17:12:31.824162,0,1703862751,823729142,world,2.2602930068969727,0.7021865844726562,0.8366290926933289,-0.5406683087348938,-0.6806707382202148,0.11483610421419144,-0.48080965876579285
2023/12/29/17:12:31.824219,0,1703862751,823803276,world,2.260343074798584,0.7021594643592834,0.8366141319274902,-0.5397973656654358,-0.6805338859558105,0.11390138417482376,-0.4822022616863251
2023/12/29/17:12:31.834249,0,1703862751,833762487,world,2.260350465774536,0.7021779417991638,0.8366431593894958,-0.5394655466079712,-0.6805645823478699,0.11426668614149094,-0.48244377970695496
2023/12/29/17:12:31.834306,0,1703862751,833940323,world,2.2602922916412354,0.7021539211273193,0.8365877270698547,-0.5409711599349976,-0.680575966835022,0.11528664082288742,-0.48049524426460266
2023/12/29/17:12:31.844074,0,1703862751,843659571,world,2.260371446609497,0.7022051811218262,0.8366844654083252,-0.5391412973403931,-0.6806984543800354,0.11342455446720123,-0.48281586170196533
2023/12/29/17:12:31.844187,0,1703862751,843745321,world,2.2602953910827637,0.7022197842597961,0.8366727232933044,-0.540353000164032,-0.6806963086128235,0.11537063121795654,-0.4809999167919159
2023/12/29/17:12:31.844283,0,1703862751,843813578,world,2.260282039642334,0.7021726369857788,0.8366708159446716,-0.5404697060585022,-0.6804300546646118,0.11631736904382706,-0.4810173809528351
2023/12/29/17:12:31.853904,0,1703862751,853629304,world,2.2603766918182373,0.7022501230239868,0.8367788791656494,-0.5387690663337708,-0.68076092004776,0.1143820583820343,-0.48291733860969543
2023/12/29/17:12:31.854028,0,1703862751,853738138,world,2.260355234146118,0.702218770980835,0.8367719650268555,-0.5388627052307129,-0.6805964112281799,0.11624307930469513,-0.4826003611087799
2023/12/29/17:12:31.863823,0,1703862751,863553702,world,2.260371208190918,0.7022675275802612,0.8368526101112366,-0.5379984378814697,-0.6806653738021851,0.11685870587825775,-0.4833180606365204
2023/12/29/17:12:31.863872,0,1703862751,863647717,world,2.2603912353515625,0.7023619413375854,0.8369236588478088,-0.5377483367919922,-0.6807754635810852,0.11618894338607788,-0.4836028218269348
2023/12/29/17:12:31.873935,0,1703862751,873645425,world,2.2603657245635986,0.7023121118545532,0.8369223475456238,-0.5377550721168518,-0.6804534792900085,0.11769023537635803,-0.48368537425994873
2023/12/29/17:12:31.874039,0,1703862751,873752795,world,2.260368585586548,0.7023223638534546,0.8369752764701843,-0.5371848344802856,-0.6805964112281799,0.11846539378166199,-0.48392876982688904
2023/12/29/17:12:31.874082,0,1703862751,873861382,world,2.260390281677246,0.7024151682853699,0.8370473384857178,-0.5369899272918701,-0.6808542013168335,0.11833754181861877,-0.4838135838508606
2023/12/29/17:12:31.883776,0,1703862751,883534698,world,2.2603509426116943,0.7023705244064331,0.8370293378829956,-0.5372322201728821,-0.6805227994918823,0.11967270821332932,-0.4836825728416443
2023/12/29/17:12:31.883865,0,1703862751,883581587,world,2.260387897491455,0.7023876905441284,0.8370850682258606,-0.5364853739738464,-0.6805886030197144,0.11957745254039764,-0.4844418168067932
2023/12/29/17:12:31.893857,0,1703862751,893587846,world,2.2603814601898193,0.7024282813072205,0.8370916247367859,-0.5367152094841003,-0.680586040019989,0.11985950917005539,-0.48412102460861206
2023/12/29/17:12:31.893975,0,1703862751,893628167,world,2.260380506515503,0.7024609446525574,0.8371233940124512,-0.5367588400840759,-0.6807795763015747,0.1196892186999321,-0.4838426411151886
2023/12/29/17:12:31.894085,0,1703862751,893722920,world,2.261240243911743,0.7084572315216064,0.8405036926269531,-0.5291011929512024,-0.6829029321670532,0.008915076032280922,-0.5036031603813171
2023/12/29/17:12:31.903843,0,1703862751,903619477,world,2.2626750469207764,0.7082788348197937,0.840840756893158,-0.5309959053993225,-0.6797497272491455,0.007762444205582142,-0.5058887004852295
2023/12/29/17:12:31.903934,0,1703862751,903675122,world,2.2626829147338867,0.7083063721656799,0.840856671333313,-0.5308026671409607,-0.6798189878463745,0.00782532524317503,-0.5059975385665894
2023/12/29/17:12:31.913813,0,1703862751,913573312,world,2.2626731395721436,0.7083460688591003,0.840854823589325,-0.5304291248321533,-0.6801472902297974,0.007183906622231007,-0.5059575438499451
2023/12/29/17:12:31.913896,0,1703862751,913616555,world,2.2626776695251465,0.7082812190055847,0.8407951593399048,-0.5311000943183899,-0.679660975933075,0.008276531472802162,-0.5058903694152832
2023/12/29/17:12:31.924007,0,1703862751,923660177,world,2.2626826763153076,0.7082660794258118,0.8407741785049438,-0.5312390923500061,-0.6797584891319275,0.007759382016956806,-0.5056217908859253
2023/12/29/17:12:31.924085,0,1703862751,923798756,world,2.2626779079437256,0.7082304358482361,0.8407338261604309,-0.5315296649932861,-0.6795898675918579,0.007770939264446497,-0.5055428743362427
2023/12/29/17:12:31.924133,0,1703862751,923980166,world,2.2626729011535645,0.7082181572914124,0.8407160043716431,-0.5316165089607239,-0.6795651912689209,0.007543318439275026,-0.5054881572723389
2023/12/29/17:12:31.933892,0,1703862751,933634954,world,2.262702465057373,0.7081800103187561,0.8407018780708313,-0.5319517254829407,-0.6793256998062134,0.00800882838666439,-0.5054502487182617
2023/12/29/17:12:31.933986,0,1703862751,933681422,world,2.262702703475952,0.7081105709075928,0.8406628370285034,-0.532517671585083,-0.6790331602096558,0.008411930873990059,-0.505240797996521
2023/12/29/17:12:31.943830,0,1703862751,943538886,world,2.262718915939331,0.7080581188201904,0.8406075239181519,-0.5332362651824951,-0.6788026094436646,0.00847409013658762,-0.5047913789749146
2023/12/29/17:12:31.943933,0,1703862751,943592031,world,2.262702703475952,0.708045482635498,0.8406027555465698,-0.5329824686050415,-0.6788646578788757,0.008129366673529148,-0.5049815773963928
2023/12/29/17:12:31.944015,0,1703862751,943688937,world,2.2627151012420654,0.7080003619194031,0.8405696153640747,-0.5334357023239136,-0.6786197423934937,0.00846094824373722,-0.5048267245292664
2023/12/29/17:12:31.953801,0,1703862751,953523218,world,2.262749195098877,0.7079634666442871,0.8405353426933289,-0.5341343879699707,-0.6781272292137146,0.00857359915971756,-0.5047478675842285
2023/12/29/17:12:31.953851,0,1703862751,953562183,world,2.2603793144226074,0.7022722959518433,0.8368449807167053,-0.5380839109420776,-0.680637001991272,0.11689309030771255,-0.48325473070144653
2023/12/29/17:12:31.963764,0,1703862751,963538630,world,2.2603847980499268,0.7023066282272339,0.836851954460144,-0.538395345211029,-0.6806833744049072,0.11570011079311371,-0.4831295609474182
2023/12/29/17:12:31.963865,0,1703862751,963578378,world,2.2603800296783447,0.7022940516471863,0.8368126153945923,-0.5385054349899292,-0.6806899309158325,0.11506200581789017,-0.48315006494522095
2023/12/29/17:12:31.973842,0,1703862751,973596601,world,2.260643243789673,0.7025849223136902,0.8369300365447998,-0.5412833094596863,-0.678910493850708,0.11153649538755417,-0.4833761751651764
2023/12/29/17:12:31.973956,0,1703862751,973722315,world,2.2603626251220703,0.7022168636322021,0.836788535118103,-0.5385351777076721,-0.6805410385131836,0.11578548699617386,-0.48315373063087463
2023/12/29/17:12:31.974048,0,1703862751,973846752,world,2.2603707313537598,0.7022314667701721,0.8367885947227478,-0.5385642051696777,-0.6806356906890869,0.11580462008714676,-0.4829833507537842
2023/12/29/17:12:31.983770,0,1703862751,983569563,world,2.260364532470703,0.702211320400238,0.8367797136306763,-0.5388570427894592,-0.6804885864257812,0.11542525887489319,-0.48295485973358154
2023/12/29/17:12:31.983873,0,1703862751,983621160,world,2.260354518890381,0.7022102475166321,0.8367742896080017,-0.5390071272850037,-0.6805574893951416,0.1157434955239296,-0.4826139807701111
2023/12/29/17:12:31.993933,0,1703862751,993638792,world,2.26035737991333,0.7022066116333008,0.8367717266082764,-0.5386596322059631,-0.6806508898735046,0.11585479974746704,-0.48284363746643066
2023/12/29/17:12:31.994032,0,1703862751,993738300,world,2.2603914737701416,0.7022321224212646,0.8368241786956787,-0.5379339456558228,-0.6806277632713318,0.11527467519044876,-0.48382309079170227
2023/12/29/17:12:31.994063,0,1703862751,993843273,world,2.2603611946105957,0.7022203207015991,0.8367800712585449,-0.5384740829467773,-0.6806172728538513,0.11610566824674606,-0.4830375909805298
2023/12/29/17:12:32.004188,0,1703862752,3864047,world,2.260377883911133,0.7022355794906616,0.8368185758590698,-0.5383267402648926,-0.6806036829948425,0.11619832366704941,-0.4831985533237457
2023/12/29/17:12:32.004272,0,1703862752,3982087,world,2.2603752613067627,0.702233612537384,0.8368321657180786,-0.5380570888519287,-0.6806631684303284,0.11641117185354233,-0.48336395621299744
2023/12/29/17:12:32.013840,0,1703862752,13621000,world,2.260369300842285,0.7022292613983154,0.8368332982063293,-0.538221538066864,-0.6805675029754639,0.11665985733270645,-0.4832555651664734
2023/12/29/17:12:32.013936,0,1703862752,13662864,world,2.2603540420532227,0.7022437453269958,0.836868405342102,-0.5383597612380981,-0.6804900765419006,0.1172289252281189,-0.483072966337204
2023/12/29/17:12:32.023835,0,1703862752,23576948,world,2.260374069213867,0.7022691965103149,0.8368860483169556,-0.5380046963691711,-0.6807055473327637,0.11757092922925949,-0.48308172821998596
2023/12/29/17:12:32.023915,0,1703862752,23628528,world,2.2603890895843506,0.7022930383682251,0.8369046449661255,-0.5379934310913086,-0.6805711388587952,0.11741018295288086,-0.48332273960113525
2023/12/29/17:12:32.023956,0,1703862752,23757789,world,2.260383367538452,0.7022910714149475,0.8369104862213135,-0.537957489490509,-0.6806249022483826,0.117527075111866,-0.4832587242126465
2023/12/29/17:12:32.033757,0,1703862752,33564835,world,2.2604146003723145,0.7023150324821472,0.8369455337524414,-0.5375171899795532,-0.6806939244270325,0.11762066185474396,-0.4836285412311554
2023/12/29/17:12:32.033806,0,1703862752,33693896,world,2.260397434234619,0.7022844552993774,0.8369392156600952,-0.5375139117240906,-0.6807399392127991,0.11801101267337799,-0.48347219824790955
2023/12/29/17:12:32.043866,0,1703862752,43635799,world,2.26039719581604,0.7022871971130371,0.8369684219360352,-0.5374006032943726,-0.6806715130805969,0.11860980093479156,-0.48354795575141907
2023/12/29/17:12:32.043918,0,1703862752,43718485,world,2.260422945022583,0.7023377418518066,0.8369831442832947,-0.5373876690864563,-0.6807002425193787,0.11796341091394424,-0.4836800992488861
2023/12/29/17:12:32.043954,0,1703862752,43830467,world,2.2603988647460938,0.7023192048072815,0.8369666934013367,-0.5376467704772949,-0.6806374192237854,0.11862953007221222,-0.4833175241947174
2023/12/29/17:12:32.053804,0,1703862752,53583027,world,2.2603988647460938,0.70232093334198,0.8369693160057068,-0.537438154220581,-0.6807255744934082,0.11827191710472107,-0.4835129678249359
2023/12/29/17:12:32.053909,0,1703862752,53680474,world,2.2604246139526367,0.7023978233337402,0.8370091915130615,-0.5373280644416809,-0.6807995438575745,0.11741925776004791,-0.48373889923095703
2023/12/29/17:12:32.063898,0,1703862752,63639328,world,2.2603983879089355,0.7023489475250244,0.8369749784469604,-0.5375388860702515,-0.6805717349052429,0.11853015422821045,-0.4835541844367981
2023/12/29/17:12:32.063992,0,1703862752,63692259,world,2.2604029178619385,0.7023547887802124,0.8369710445404053,-0.5375185608863831,-0.6805124878883362,0.117747001349926,-0.48385146260261536
2023/12/29/17:12:32.073833,0,1703862752,73542632,world,2.2603812217712402,0.7023175954818726,0.8369615077972412,-0.537265956401825,-0.6806016564369202,0.11812464892864227,-0.48391449451446533
2023/12/29/17:12:32.073935,0,1703862752,73625098,world,2.2603893280029297,0.7023340463638306,0.8369762301445007,-0.537276566028595,-0.6806262135505676,0.11823120713233948,-0.4838423430919647
2023/12/29/17:12:32.074036,0,1703862752,73710224,world,2.2603983879089355,0.7023894786834717,0.8370016813278198,-0.5373445153236389,-0.6806910634040833,0.11703987419605255,-0.48396509885787964
2023/12/29/17:12:32.083835,0,1703862752,83608481,world,2.2603933811187744,0.7023321986198425,0.836968719959259,-0.5372107625007629,-0.6805915832519531,0.11779844760894775,-0.48406949639320374
2023/12/29/17:12:32.083934,0,1703862752,83709208,world,2.2604122161865234,0.7023826241493225,0.8369948863983154,-0.5372142195701599,-0.6807255744934082,0.11672183126211166,-0.48413798213005066
2023/12/29/17:12:32.093847,0,1703862752,93652519,world,2.260406017303467,0.7023876309394836,0.8369768261909485,-0.5375642776489258,-0.6806911826133728,0.1169404685497284,-0.4837448298931122
2023/12/29/17:12:32.093994,0,1703862752,93752988,world,2.26041579246521,0.7023358345031738,0.8369429111480713,-0.5373530983924866,-0.6805645227432251,0.11702609807252884,-0.4841368794441223
2023/12/29/17:12:32.094090,0,1703862752,93856283,world,2.2604360580444336,0.7023802399635315,0.8369781374931335,-0.5371742248535156,-0.6808822751045227,0.11627668142318726,-0.484069287776947
2023/12/29/17:12:32.103839,0,1703862752,103584163,world,2.26041841506958,0.7023118138313293,0.8369267582893372,-0.5372534394264221,-0.680783748626709,0.11707760393619537,-0.4839267134666443
2023/12/29/17:12:32.103948,0,1703862752,103694121,world,2.2604355812072754,0.7023382782936096,0.8369631171226501,-0.537105917930603,-0.6807250380516052,0.11754214018583298,-0.4840605854988098
2023/12/29/17:12:32.113805,0,1703862752,113602569,world,2.2604265213012695,0.7023374438285828,0.8369515538215637,-0.537520706653595,-0.6806747913360596,0.11746854335069656,-0.48368847370147705
2023/12/29/17:12:32.113906,0,1703862752,113644021,world,2.260416030883789,0.7023196816444397,0.8369447588920593,-0.5374422073364258,-0.6806610822677612,0.11738564074039459,-0.48381510376930237
2023/12/29/17:12:32.123862,0,1703862752,123577653,world,2.2604289054870605,0.7023253440856934,0.8369473814964294,-0.5374377369880676,-0.6807036995887756,0.1176379919052124,-0.4836987257003784
2023/12/29/17:12:32.124028,0,1703862752,123848840,world,2.2604222297668457,0.7023146748542786,0.8369548320770264,-0.5373387932777405,-0.6807944774627686,0.11822609603404999,-0.48353761434555054
2023/12/29/17:12:32.133988,0,1703862752,133619615,world,2.260444402694702,0.7023642659187317,0.8369726538658142,-0.5374365448951721,-0.6806930303573608,0.11814352869987488,-0.48359188437461853
2023/12/29/17:12:32.134120,0,1703862752,133709163,world,2.260723829269409,0.7026993036270142,0.8370973467826843,-0.5400014519691467,-0.6790515184402466,0.11360079795122147,-0.48413053154945374
2023/12/29/17:12:32.143867,0,1703862752,143599965,world,2.2607226371765137,0.7026906609535217,0.8370959758758545,-0.5400127172470093,-0.6791524887084961,0.11330684274435043,-0.4840451776981354
2023/12/29/17:12:32.143917,0,1703862752,143642769,world,2.260732889175415,0.7027230262756348,0.8370997905731201,-0.5401943922042847,-0.6791096925735474,0.11337339133024216,-0.4838869571685791
2023/12/29/17:12:32.143954,0,1703862752,143691895,world,2.260732650756836,0.7027117013931274,0.8371004462242126,-0.5401255488395691,-0.6790363192558289,0.1132827028632164,-0.48408788442611694
2023/12/29/17:12:32.153797,0,1703862752,153562441,world,2.2604458332061768,0.7023687958717346,0.8369784355163574,-0.5371568202972412,-0.6807733774185181,0.11846207827329636,-0.48371174931526184
2023/12/29/17:12:32.153846,0,1703862752,153629350,world,2.260755777359009,0.7027285099029541,0.8371023535728455,-0.5404037237167358,-0.6790688633918762,0.11309120804071426,-0.4837765097618103
2023/12/29/17:12:32.164347,0,1703862752,163849524,world,2.2607288360595703,0.7027322053909302,0.8370884656906128,-0.5404033064842224,-0.6790826916694641,0.11371368914842606,-0.4836116433143616
2023/12/29/17:12:32.164412,0,1703862752,163920622,world,2.2607338428497314,0.7027188539505005,0.8370952010154724,-0.5404914021492004,-0.6789265871047974,0.11332850903272629,-0.4838227331638336
2023/12/29/17:12:32.173903,0,1703862752,173538707,world,2.260695219039917,0.7027069926261902,0.8370557427406311,-0.5409819483757019,-0.6789818406105042,0.11353845149278641,-0.4831472933292389
2023/12/29/17:12:32.173990,0,1703862752,173594642,world,2.2607176303863525,0.7027022838592529,0.837048351764679,-0.5409031510353088,-0.6789955496788025,0.11324355006217957,-0.4832853376865387
2023/12/29/17:12:32.174052,0,1703862752,173666491,world,2.26070499420166,0.7026916146278381,0.8370683193206787,-0.540573239326477,-0.6789113283157349,0.11356740444898605,-0.4836965799331665
2023/12/29/17:12:32.183777,0,1703862752,183567756,world,2.2604470252990723,0.7023972868919373,0.8369712829589844,-0.5372981429100037,-0.6805258393287659,0.11788376420736313,-0.4840441048145294
2023/12/29/17:12:32.183873,0,1703862752,183655408,world,2.2607264518737793,0.7027300596237183,0.8370833396911621,-0.5405311584472656,-0.6789806485176086,0.11329592764377594,-0.4837101399898529
2023/12/29/17:12:32.193836,0,1703862752,193608479,world,2.260725259780884,0.7027186751365662,0.837076723575592,-0.5403538942337036,-0.6790837049484253,0.11365657299757004,-0.4836789667606354
2023/12/29/17:12:32.193887,0,1703862752,193750785,world,2.260725736618042,0.7027241587638855,0.8370805382728577,-0.5403728485107422,-0.6789838671684265,0.11329470574855804,-0.48388269543647766
2023/12/29/17:12:32.193960,0,1703862752,193894123,world,2.2607383728027344,0.7027235627174377,0.8370749354362488,-0.5403396487236023,-0.6791619062423706,0.11325813829898834,-0.48367840051651
2023/12/29/17:12:32.203807,0,1703862752,203561751,world,2.260472536087036,0.7023811936378479,0.8369515538215637,-0.5376284122467041,-0.6806780695915222,0.11772213131189346,-0.48350244760513306
2023/12/29/17:12:32.203881,0,1703862752,203630341,world,2.26076602935791,0.7027190923690796,0.8370876312255859,-0.540515124797821,-0.6791338920593262,0.11292564123868942,-0.4835994243621826
2023/12/29/17:12:32.213814,0,1703862752,213618356,world,2.2607600688934326,0.7027159929275513,0.8370810151100159,-0.5405305027961731,-0.6791154742240906,0.11283992230892181,-0.4836282432079315
2023/12/29/17:12:32.213864,0,1703862752,213691678,world,2.260749340057373,0.7027063965797424,0.8370696306228638,-0.5406475067138672,-0.6790942549705505,0.11292356997728348,-0.48350757360458374
2023/12/29/17:12:32.223765,0,1703862752,223553396,world,2.2607569694519043,0.7026908993721008,0.8370264768600464,-0.5408482551574707,-0.6792939305305481,0.11312182247638702,-0.4829559922218323
2023/12/29/17:12:32.223853,0,1703862752,223657458,world,2.2607593536376953,0.7026820778846741,0.8370087742805481,-0.5410100221633911,-0.6791207790374756,0.11265019327402115,-0.4831283688545227
2023/12/29/17:12:32.223891,0,1703862752,223790711,world,2.260768175125122,0.7027361989021301,0.8370227217674255,-0.5411351323127747,-0.679057240486145,0.11254161596298218,-0.483102947473526
2023/12/29/17:12:32.233765,0,1703862752,233554147,world,2.2607810497283936,0.7027269005775452,0.8370343446731567,-0.5407789349555969,-0.6790346503257751,0.1127341091632843,-0.4834885597229004
2023/12/29/17:12:32.233816,0,1703862752,233649561,world,2.2607944011688232,0.7027412056922913,0.8370339274406433,-0.5406051874160767,-0.6791711449623108,0.11314049363136292,-0.4833962619304657
2023/12/29/17:12:32.243831,0,1703862752,243565860,world,2.260798692703247,0.7027326822280884,0.8370201587677002,-0.5408777594566345,-0.679133415222168,0.11332403868436813,-0.4831013083457947
2023/12/29/17:12:32.243921,0,1703862752,243678418,world,2.260805130004883,0.7027772665023804,0.8370481133460999,-0.5408645868301392,-0.6790362596511841,0.11309976875782013,-0.4833050072193146
2023/12/29/17:12:32.243982,0,1703862752,243845813,world,2.260845184326172,0.7028067708015442,0.8370802998542786,-0.5405848622322083,-0.6792044639587402,0.11357700079679489,-0.48326972126960754
2023/12/29/17:12:32.253844,0,1703862752,253562428,world,2.260843515396118,0.702820360660553,0.837096631526947,-0.5402327179908752,-0.6792076230049133,0.1140303909778595,-0.48355215787887573
2023/12/29/17:12:32.264008,0,1703862752,263742888,world,2.2608397006988525,0.702854573726654,0.8371216058731079,-0.540152370929718,-0.679051399230957,0.1147371456027031,-0.48369425535202026
2023/12/29/17:12:32.264079,0,1703862752,263885541,world,2.2608604431152344,0.7028707265853882,0.8371285796165466,-0.540026843547821,-0.6792176961898804,0.11455759406089783,-0.4836435317993164
2023/12/29/17:12:32.273956,0,1703862752,273668175,world,2.2608680725097656,0.7028911113739014,0.8371496200561523,-0.539808452129364,-0.6792281270027161,0.11501112580299377,-0.4837648570537567
2023/12/29/17:12:32.274161,0,1703862752,273846318,world,2.2608885765075684,0.7029206156730652,0.8371868133544922,-0.5395458340644836,-0.6790995597839355,0.11453187465667725,-0.48435163497924805
2023/12/29/17:12:32.274314,0,1703862752,274083855,world,2.260890483856201,0.7029560804367065,0.837182879447937,-0.5394524335861206,-0.6792750954627991,0.11483006179332733,-0.484139084815979
2023/12/29/17:12:32.283987,0,1703862752,283851299,world,2.260873317718506,0.7029330134391785,0.8371630907058716,-0.5396955013275146,-0.679188072681427,0.11518419533967972,-0.4839059114456177
2023/12/29/17:12:32.294246,0,1703862752,293855828,world,2.260878562927246,0.7029426097869873,0.8371545076370239,-0.5400174856185913,-0.6791530251502991,0.11496768146753311,-0.48364734649658203
2023/12/29/17:12:32.294318,0,1703862752,294159070,world,2.260891914367676,0.702950119972229,0.8371708393096924,-0.5397497415542603,-0.679131031036377,0.11523305624723434,-0.48391392827033997
2023/12/29/17:12:32.294490,0,1703862752,294355848,world,2.2608840465545654,0.7029402256011963,0.8371409773826599,-0.5401329398155212,-0.6791950464248657,0.11489060521125793,-0.4834776222705841
2023/12/29/17:12:32.303965,0,1703862752,303594057,world,2.260897636413574,0.7029243111610413,0.8371386528015137,-0.5398700833320618,-0.6792453527450562,0.11458826810121536,-0.483772337436676
2023/12/29/17:12:32.304132,0,1703862752,303729934,world,2.260909080505371,0.7029216885566711,0.8371249437332153,-0.5400782227516174,-0.6791855692863464,0.11412190645933151,-0.4837340712547302
2023/12/29/17:12:32.313970,0,1703862752,313699661,world,2.260920286178589,0.7029353976249695,0.837134063243866,-0.5402854681015015,-0.6790449023246765,0.11405209451913834,-0.4837166965007782
2023/12/29/17:12:32.314127,0,1703862752,313814981,world,2.260901927947998,0.7029193043708801,0.837099015712738,-0.5403909683227539,-0.6792410016059875,0.11383184790611267,-0.48337510228157043
2023/12/29/17:12:32.324193,0,1703862752,323707289,world,2.260931968688965,0.7029168605804443,0.8370912075042725,-0.5400723814964294,-0.6792115569114685,0.11370393633842468,-0.4838026165962219
2023/12/29/17:12:32.324355,0,1703862752,323877836,world,2.260918140411377,0.7028884291648865,0.8370461463928223,-0.5405598282814026,-0.6792805790901184,0.11374682933092117,-0.4831508696079254
2023/12/29/17:12:32.324416,0,1703862752,324128917,world,2.260908603668213,0.7028839588165283,0.8370236754417419,-0.540953516960144,-0.6792383790016174,0.11374907940626144,-0.48276886343955994
2023/12/29/17:12:32.343991,0,1703862752,343679677,world,2.260941982269287,0.7029029130935669,0.83702552318573,-0.5407373905181885,-0.6793290376663208,0.113399937748909,-0.48296546936035156
2023/12/29/17:12:32.353866,0,1703862752,353613791,world,2.2609469890594482,0.7029113173484802,0.8370474576950073,-0.5400217175483704,-0.6794071197509766,0.11457081884145737,-0.48337993025779724
2023/12/29/17:12:32.363935,0,1703862752,363635979,world,2.2609591484069824,0.7029654383659363,0.8370645046234131,-0.5404471158981323,-0.6793624758720398,0.11420542001724243,-0.48305365443229675
2023/12/29/17:12:32.374125,0,1703862752,373687343,world,2.2609715461730957,0.7029607892036438,0.8370739817619324,-0.5402026772499084,-0.6793454885482788,0.11386821419000626,-0.48343032598495483
2023/12/29/17:12:32.374362,0,1703862752,373813496,world,2.260986328125,0.7029975056648254,0.837091863155365,-0.5399413704872131,-0.6793748140335083,0.11387437582015991,-0.4836795926094055
2023/12/29/17:12:32.374462,0,1703862752,374140302,world,2.2609946727752686,0.7030273675918579,0.8371021747589111,-0.539960503578186,-0.6793574094772339,0.11403155326843262,-0.48364561796188354
2023/12/29/17:12:32.393976,0,1703862752,393724453,world,2.2609639167785645,0.7030158638954163,0.8370749950408936,-0.5402150750160217,-0.6793480515480042,0.11443178355693817,-0.4832797050476074
2023/12/29/17:12:32.463899,0,1703862752,463608878,world,2.2609705924987793,0.7030432224273682,0.8371428847312927,-0.5394409894943237,-0.6792269945144653,0.11485275626182556,-0.4842139184474945
2023/12/29/17:12:32.463971,0,1703862752,463682216,world,2.2609665393829346,0.7030404806137085,0.8371250629425049,-0.5401034355163574,-0.6792148947715759,0.11431464552879333,-0.48361936211586
2023/12/29/17:12:32.474140,0,1703862752,473673675,world,2.2609522342681885,0.7030071020126343,0.8370633125305176,-0.5403682589530945,-0.6791405081748962,0.11376964300870895,-0.4835563898086548
2023/12/29/17:12:32.474340,0,1703862752,473893423,world,2.2609565258026123,0.7029913067817688,0.8370283842086792,-0.5404571294784546,-0.6792844533920288,0.11335872858762741,-0.48335137963294983
2023/12/29/17:12:32.474403,0,1703862752,474110115,world,2.2609267234802246,0.7029403448104858,0.8369606733322144,-0.5411173105239868,-0.679172933101654,0.11289554089307785,-0.4828777015209198
2023/12/29/17:12:32.483977,0,1703862752,483597074,world,2.2609524726867676,0.7029632329940796,0.8369675874710083,-0.5409196019172668,-0.6792003512382507,0.112352654337883,-0.48318710923194885
2023/12/29/17:12:32.484078,0,1703862752,483662009,world,2.260948896408081,0.7029563188552856,0.8369579911231995,-0.5412622690200806,-0.6791638731956482,0.11218935251235962,-0.48289263248443604
2023/12/29/17:12:32.494114,0,1703862752,493725907,world,2.2609264850616455,0.7029320597648621,0.8369471430778503,-0.5411701798439026,-0.6792072653770447,0.11272499710321426,-0.4828099012374878
2023/12/29/17:12:32.494208,0,1703862752,493924764,world,2.2609379291534424,0.7029446959495544,0.8369829654693604,-0.5406314730644226,-0.6792711615562439,0.11260335892438889,-0.4833516776561737
2023/12/29/17:12:32.504045,0,1703862752,503681178,world,2.260916233062744,0.7029381990432739,0.8369469046592712,-0.5412197709083557,-0.6791884303092957,0.11278259754180908,-0.48276737332344055
2023/12/29/17:12:32.504122,0,1703862752,503898813,world,2.260927438735962,0.7029537558555603,0.8369902968406677,-0.5406389832496643,-0.6792562007904053,0.11314220726490021,-0.4832385182380676
2023/12/29/17:12:32.513976,0,1703862752,513669364,world,2.2609455585479736,0.7029933333396912,0.8370251059532166,-0.5404284596443176,-0.6792097687721252,0.11255531758069992,-0.48367613554000854
2023/12/29/17:12:32.514093,0,1703862752,513792785,world,2.2609140872955322,0.7030085921287537,0.8370460271835327,-0.5405457019805908,-0.6791918873786926,0.11319451779127121,-0.48342084884643555
2023/12/29/17:12:32.523958,0,1703862752,523655964,world,2.2609174251556396,0.7030067443847656,0.837053120136261,-0.5404005646705627,-0.6790786981582642,0.11314824968576431,-0.4837528169155121
2023/12/29/17:12:32.524125,0,1703862752,523831513,world,2.260923385620117,0.703039288520813,0.8370947241783142,-0.5398789048194885,-0.6791295409202576,0.11312644183635712,-0.48426881432533264
2023/12/29/17:12:32.524244,0,1703862752,524039737,world,2.2609095573425293,0.7030349969863892,0.8371031880378723,-0.5400115251541138,-0.679122269153595,0.11354635655879974,-0.4840327203273773
2023/12/29/17:12:32.533899,0,1703862752,533617870,world,2.2608911991119385,0.7030242085456848,0.837121307849884,-0.5398874282836914,-0.6790682077407837,0.11424456536769867,-0.48408275842666626
2023/12/29/17:12:32.534051,0,1703862752,533747043,world,2.2608776092529297,0.7030631899833679,0.8371535539627075,-0.5399137139320374,-0.6792327165603638,0.11360655725002289,-0.4839727580547333
2023/12/29/17:12:32.543921,0,1703862752,543703776,world,2.260904550552368,0.70305997133255,0.8371728658676147,-0.5392046570777893,-0.6792641878128052,0.11443642526865005,-0.48452329635620117
2023/12/29/17:12:32.543989,0,1703862752,543768449,world,2.260862350463867,0.7030388712882996,0.8371902108192444,-0.5396705865859985,-0.6790480613708496,0.11476540565490723,-0.4842297434806824
2023/12/29/17:12:32.544039,0,1703862752,543831813,world,2.260880947113037,0.7030918598175049,0.8372423052787781,-0.539423406124115,-0.6791556477546692,0.11355889588594437,-0.4846385419368744
2023/12/29/17:12:32.554112,0,1703862752,553671170,world,2.2608494758605957,0.7030845284461975,0.837246298789978,-0.539219319820404,-0.6792473196983337,0.1142483651638031,-0.484575092792511
2023/12/29/17:12:32.554182,0,1703862752,553746704,world,2.260849952697754,0.7031106352806091,0.8372536897659302,-0.5396198034286499,-0.6790422797203064,0.1143282949924469,-0.4843977689743042
2023/12/29/17:12:32.563927,0,1703862752,563671780,world,2.2608423233032227,0.7030787467956543,0.8372750282287598,-0.5392264723777771,-0.6790511608123779,0.11512577533721924,-0.48463431000709534
2023/12/29/17:12:32.563995,0,1703862752,563802586,world,2.260850191116333,0.7030968070030212,0.8372800350189209,-0.539232611656189,-0.6791931986808777,0.11456669121980667,-0.48456093668937683
2023/12/29/17:12:32.574070,0,1703862752,573754010,world,2.2608413696289062,0.7030991911888123,0.8372935056686401,-0.5393106341362,-0.6792353987693787,0.11448273807764053,-0.4844348430633545
2023/12/29/17:12:32.574567,0,1703862752,573915564,world,2.2608468532562256,0.7031069993972778,0.8373314142227173,-0.5391528010368347,-0.6791072487831116,0.11447204649448395,-0.4847925305366516
2023/12/29/17:12:32.574645,0,1703862752,574046786,world,2.2608466148376465,0.7030954957008362,0.83733069896698,-0.5391133427619934,-0.6792218685150146,0.11486851423978806,-0.48458200693130493
2023/12/29/17:12:32.584204,0,1703862752,583722464,world,2.2614593505859375,0.7084800601005554,0.840437650680542,-0.5317548513412476,-0.6827923655509949,0.0076630208641290665,-0.500971794128418
2023/12/29/17:12:32.594048,0,1703862752,593671004,world,2.2608578205108643,0.7029725313186646,0.8372737169265747,-0.5396671295166016,-0.6790978312492371,0.11466582119464874,-0.4841873347759247
2023/12/29/17:12:32.594104,0,1703862752,593800123,world,2.2608776092529297,0.7029895782470703,0.8372785449028015,-0.5398385524749756,-0.6793586611747742,0.11399446427822113,-0.4837886393070221
2023/12/29/17:12:32.594135,0,1703862752,593889461,world,2.260878562927246,0.7029231786727905,0.8372471332550049,-0.5399031639099121,-0.6793294548988342,0.11465384066104889,-0.48360174894332886
2023/12/29/17:12:32.604028,0,1703862752,603677378,world,2.2609150409698486,0.7028822302818298,0.8372074365615845,-0.5400877594947815,-0.6795807480812073,0.113883376121521,-0.4832243323326111
2023/12/29/17:12:32.624190,0,1703862752,623861605,world,2.260932445526123,0.7028058767318726,0.8371236324310303,-0.5406079888343811,-0.6796875596046448,0.11214286088943481,-0.4828995168209076
2023/12/29/17:12:32.624486,0,1703862752,623998609,world,2.2609429359436035,0.7027665376663208,0.8370746970176697,-0.5410473942756653,-0.679599404335022,0.11126576364040375,-0.4827341139316559
2023/12/29/17:12:32.624578,0,1703862752,624141513,world,2.2609424591064453,0.7027356624603271,0.837074875831604,-0.5412246584892273,-0.679577112197876,0.1105460375547409,-0.4827324151992798
2023/12/29/17:12:32.633734,0,1703862752,633589971,world,2.2609384059906006,0.7027262449264526,0.8370376825332642,-0.5413691401481628,-0.679779052734375,0.11051870137453079,-0.4822920858860016
2023/12/29/17:12:32.644248,0,1703862752,643603744,world,2.260831117630005,0.7026679515838623,0.837019145488739,-0.5428637862205505,-0.6798526048660278,0.11105716973543167,-0.4803807735443115
2023/12/29/17:12:32.644369,0,1703862752,643777963,world,2.2608211040496826,0.7026330232620239,0.8369837403297424,-0.543217122554779,-0.6795293688774109,0.11143286526203156,-0.4803518056869507
2023/12/29/17:12:32.644485,0,1703862752,643874190,world,2.2608354091644287,0.7026041746139526,0.8369951844215393,-0.5425609946250916,-0.6796364188194275,0.11146435141563416,-0.4809340834617615
2023/12/29/17:12:32.653718,0,1703862752,653562425,world,2.2608323097229004,0.7026076316833496,0.8370246887207031,-0.5425187349319458,-0.679636538028717,0.11153864860534668,-0.4809645414352417
2023/12/29/17:12:32.654055,0,1703862752,653674584,world,2.2608680725097656,0.7025719285011292,0.8370396494865417,-0.541677713394165,-0.6796321868896484,0.11049921810626984,-0.4821569621562958
2023/12/29/17:12:32.664126,0,1703862752,663730041,world,2.26088547706604,0.7025853991508484,0.837070107460022,-0.5416884422302246,-0.6796637773513794,0.11015921086072922,-0.48217812180519104
2023/12/29/17:12:32.664226,0,1703862752,663910974,world,2.260895252227783,0.7025638222694397,0.8371149897575378,-0.5410411357879639,-0.6798719167709351,0.110028937458992,-0.48264098167419434
2023/12/29/17:12:32.674162,0,1703862752,673771076,world,2.260845899581909,0.7025414109230042,0.8371395468711853,-0.5414689183235168,-0.6797019839286804,0.11060898751020432,-0.4822677969932556
2023/12/29/17:12:32.674416,0,1703862752,673996041,world,2.2608094215393066,0.7025129199028015,0.8371681571006775,-0.5413801670074463,-0.6796351671218872,0.11095598340034485,-0.48238205909729004
2023/12/29/17:12:32.703904,0,1703862752,703640245,world,2.259337902069092,0.7164185643196106,0.835134744644165,-0.3047803044319153,-0.5821572542190552,0.26811662316322327,-0.7044965028762817
2023/12/29/17:12:32.713987,0,1703862752,713646309,world,2.2616159915924072,0.7079898715019226,0.8405985236167908,-0.5320695042610168,-0.6836124658584595,0.007344900164753199,-0.4995218515396118
2023/12/29/17:12:32.714158,0,1703862752,713842241,world,2.261953830718994,0.7069936394691467,0.8407867550849915,-0.5501384735107422,-0.6879850029945374,-0.020946605131030083,-0.4728483259677887
2023/12/29/17:12:32.724446,0,1703862752,723751221,world,2.261690378189087,0.7079858779907227,0.8406325578689575,-0.53215491771698,-0.6836261749267578,0.007221970707178116,-0.4994138777256012
2023/12/29/17:12:32.724603,0,1703862752,724122931,world,2.2617087364196777,0.7079923748970032,0.8406531810760498,-0.5320450663566589,-0.6837694048881531,0.007268618326634169,-0.4993341565132141
2023/12/29/17:12:32.724687,0,1703862752,724311390,world,2.2617299556732178,0.7079631090164185,0.8406617641448975,-0.5321570038795471,-0.6838145852088928,0.007574437186121941,-0.49914848804473877
2023/12/29/17:12:32.734032,0,1703862752,733656050,world,2.261751890182495,0.7080062627792358,0.8406844139099121,-0.5318145751953125,-0.6841177344322205,0.006800208706408739,-0.4991091787815094
2023/12/29/17:12:32.734125,0,1703862752,733840954,world,2.261115789413452,0.7023445963859558,0.8373136520385742,-0.540993869304657,-0.6812318563461304,0.1146819069981575,-0.4796842634677887
2023/12/29/17:12:32.744005,0,1703862752,743717593,world,2.263679265975952,0.6991770267486572,0.8156454563140869,-0.5290932059288025,-0.12626978754997253,-0.6888704895973206,0.4791385531425476
2023/12/29/17:12:32.744193,0,1703862752,744033679,world,2.2344157695770264,0.685773491859436,0.8594656586647034,-0.24415923655033112,-0.40380406379699707,-0.8729052543640137,-0.12395553290843964
2023/12/29/17:12:32.754195,0,1703862752,753742977,world,2.2343969345092773,0.6857221126556396,0.8593743443489075,-0.2443118393421173,-0.404447466135025,-0.8724632263183594,-0.12466750293970108
2023/12/29/17:12:32.763996,0,1703862752,763677749,world,2.2344961166381836,0.685103714466095,0.8593965172767639,-0.2412329763174057,-0.40151140093803406,-0.8746517300605774,-0.12481877207756042
2023/12/29/17:12:32.764155,0,1703862752,763841935,world,2.2344279289245605,0.6851640939712524,0.8593013286590576,-0.24165472388267517,-0.40193286538124084,-0.8742811679840088,-0.12524142861366272
2023/12/29/17:12:32.774298,0,1703862752,773767244,world,2.2344064712524414,0.6853949427604675,0.8592106103897095,-0.24392901360988617,-0.4037191867828369,-0.8727421164512634,-0.1258203387260437
2023/12/29/17:12:32.774457,0,1703862752,773877897,world,2.2343480587005615,0.6853173971176147,0.8591735363006592,-0.24335666000843048,-0.4034533202648163,-0.8729548454284668,-0.12630409002304077
2023/12/29/17:12:32.774597,0,1703862752,774162499,world,2.2344725131988525,0.6850981116294861,0.8591490387916565,-0.24283185601234436,-0.403780460357666,-0.8729459047317505,-0.12633119523525238
2023/12/29/17:12:32.783930,0,1703862752,783557975,world,2.234408378601074,0.6850794553756714,0.8591037392616272,-0.24264413118362427,-0.40360337495803833,-0.8730918169021606,-0.12624922394752502
2023/12/29/17:12:32.794152,0,1703862752,793704575,world,2.2343645095825195,0.6849067807197571,0.8590413928031921,-0.24139286577701569,-0.4034598171710968,-0.8734222054481506,-0.12681986391544342
2023/12/29/17:12:32.794313,0,1703862752,793895392,world,2.2631516456604004,0.6973969340324402,0.8163207173347473,-0.5219249129295349,-0.13482722640037537,-0.6859522461891174,0.4887591302394867
2023/12/29/17:12:32.794410,0,1703862752,794093905,world,2.263115406036377,0.6974009871482849,0.8163673281669617,-0.5216735601425171,-0.13532455265522003,-0.6857901811599731,0.48911744356155396
2023/12/29/17:12:32.804212,0,1703862752,803934316,world,2.261383533477783,0.7069596648216248,0.8405774831771851,-0.5362072587013245,-0.6791998744010925,0.010885211639106274,-0.5010497570037842
2023/12/29/17:12:32.814055,0,1703862752,813673639,world,2.2633159160614014,0.697637677192688,0.8164734244346619,-0.5203701853752136,-0.13380630314350128,-0.6882404685020447,0.4874791204929352
2023/12/29/17:12:32.824290,0,1703862752,823816047,world,2.2631313800811768,0.6974986791610718,0.8165360689163208,-0.5204488635063171,-0.13511782884597778,-0.6866792440414429,0.4892318844795227
2023/12/29/17:12:32.824470,0,1703862752,824165447,world,2.2552428245544434,0.6798036694526672,0.8279896974563599,0.6469956636428833,0.47223207354545593,-0.45403727889060974,0.3901841938495636
2023/12/29/17:12:32.824622,0,1703862752,824280055,world,2.255197763442993,0.6797784566879272,0.8279710412025452,0.6465582251548767,0.472161203622818,-0.454705148935318,0.3902171552181244
2023/12/29/17:12:32.834647,0,1703862752,833737232,world,2.261213779449463,0.70711350440979,0.8408036828041077,0.533825695514679,0.6807183027267456,-0.009963632561266422,0.50155109167099
2023/12/29/17:12:32.836735,0,1703862752,836344360,world,2.261197805404663,0.7071067690849304,0.8408167958259583,0.5337874293327332,0.680785596370697,-0.010449547320604324,0.5014905333518982
2023/12/29/17:12:32.836952,0,1703862752,836617798,world,2.2624759674072266,0.7069868445396423,0.8413081169128418,0.5341928601264954,0.679193377494812,-0.009160439483821392,0.5032399296760559
2023/12/29/17:12:32.843910,0,1703862752,843657542,world,2.2629897594451904,0.705927848815918,0.8413951396942139,0.5536267161369324,0.683062732219696,0.021674856543540955,0.47587084770202637
2023/12/29/17:12:32.844022,0,1703862752,843750368,world,2.26298451423645,0.7058953046798706,0.8414256572723389,0.5537714958190918,0.6828982830047607,0.021942995488643646,0.47592616081237793
2023/12/29/17:12:32.854028,0,1703862752,853628388,world,2.262411594390869,0.7069195508956909,0.8414320349693298,0.5346813201904297,0.6790988445281982,-0.008298195898532867,0.5028635859489441
2023/12/29/17:12:32.854132,0,1703862752,853754303,world,2.2628908157348633,0.7058529257774353,0.8415722846984863,0.5538250207901001,0.6830771565437317,0.022194355726242065,0.4755954444408417
