time,.header.seq,.header.stamp.secs,.header.stamp.nsecs,.header.frame_id,.pose.position.x,.pose.position.y,.pose.position.z,.pose.orientation.x,.pose.orientation.y,.pose.orientation.z,.pose.orientation.w
2024/01/30/17:43:25.152649,446,1703862751,374112663,world,2.6718883514404297,0.70036381483078,0.8187727332115173,0.0,0.0,0.0,0.0
2024/01/30/17:43:25.179297,447,1703862751,383556611,world,2.6718883514404297,0.70036381483078,0.8187727332115173,0.0,0.0,0.0,0.0
2024/01/30/17:43:25.203207,448,1703862751,383618719,world,2.6718883514404297,0.70036381483078,0.8187727332115173,0.0,0.0,0.0,0.0
2024/01/30/17:43:25.231408,449,1703862751,393616519,world,2.6718883514404297,0.70036381483078,0.8187727332115173,0.0,0.0,0.0,0.0
2024/01/30/17:43:25.252025,450,1703862751,393763021,world,2.6718883514404297,0.70036381483078,0.8187727332115173,0.0,0.0,0.0,0.0
2024/01/30/17:43:25.272882,451,1703862751,393893882,world,2.6718883514404297,0.70036381483078,0.8187727332115173,0.0,0.0,0.0,0.0
2024/01/30/17:43:25.292117,452,1703862751,403629403,world,2.6718883514404297,0.70036381483078,0.8187727332115173,0.0,0.0,0.0,0.0
2024/01/30/17:43:25.318407,453,1703862751,403719992,world,2.6718883514404297,0.70036381483078,0.8187727332115173,0.0,0.0,0.0,0.0
2024/01/30/17:43:25.341948,454,1703862751,413576831,world,2.6718883514404297,0.70036381483078,0.8187727332115173,0.0,0.0,0.0,0.0
2024/01/30/17:43:25.364281,455,1703862751,413668595,world,2.6718883514404297,0.70036381483078,0.8187727332115173,0.0,0.0,0.0,0.0
2024/01/30/17:43:25.388776,456,1703862751,573700501,world,2.6718883514404297,0.70036381483078,0.8187727332115173,0.0,0.0,0.0,0.0
2024/01/30/17:43:25.430141,457,1703862751,583675263,world,2.6718883514404297,0.70036381483078,0.8187727332115173,0.0,0.0,0.0,0.0
2024/01/30/17:43:25.456398,458,1703862751,583825726,world,2.6718883514404297,0.70036381483078,0.8187727332115173,0.0,0.0,0.0,0.0
2024/01/30/17:43:25.492946,459,1703862751,593585985,world,2.6718883514404297,0.70036381483078,0.8187727332115173,0.0,0.0,0.0,0.0
2024/01/30/17:43:25.514499,460,1703862751,593657123,world,2.6718883514404297,0.70036381483078,0.8187727332115173,0.0,0.0,0.0,0.0
2024/01/30/17:43:25.539431,461,1703862751,593716046,world,2.6718883514404297,0.70036381483078,0.8187727332115173,0.0,0.0,0.0,0.0
2024/01/30/17:43:25.564112,462,1703862751,603634082,world,2.6718883514404297,0.70036381483078,0.8187727332115173,0.0,0.0,0.0,0.0
2024/01/30/17:43:25.584193,463,1703862751,603731386,world,2.6718883514404297,0.70036381483078,0.8187727332115173,0.0,0.0,0.0,0.0
2024/01/30/17:43:25.608516,464,1703862751,613619909,world,2.6718883514404297,0.70036381483078,0.8187727332115173,0.0,0.0,0.0,0.0
2024/01/30/17:43:25.633804,465,1703862751,613739158,world,2.6718883514404297,0.70036381483078,0.8187727332115173,0.0,0.0,0.0,0.0
2024/01/30/17:43:25.658303,466,1703862751,863553702,world,2.6718883514404297,0.70036381483078,0.8187727332115173,0.0,0.0,0.0,0.0
2024/01/30/17:43:25.680183,467,1703862751,863647717,world,2.6718883514404297,0.70036381483078,0.8187727332115173,0.0,0.0,0.0,0.0
2024/01/30/17:43:25.724624,468,1703862751,873645425,world,2.6718883514404297,0.70036381483078,0.8187727332115173,0.0,0.0,0.0,0.0
2024/01/30/17:43:25.748549,469,1703862751,873752795,world,2.6718883514404297,0.70036381483078,0.8187727332115173,0.0,0.0,0.0,0.0
2024/01/30/17:43:25.783252,470,1703862751,873861382,world,2.6718883514404297,0.70036381483078,0.8187727332115173,0.0,0.0,0.0,0.0
2024/01/30/17:43:25.818995,471,1703862751,883534698,world,2.6718883514404297,0.70036381483078,0.8187727332115173,0.0,0.0,0.0,0.0
2024/01/30/17:43:25.868371,472,1703862751,883581587,world,2.6718883514404297,0.70036381483078,0.8187727332115173,0.0,0.0,0.0,0.0
2024/01/30/17:43:25.919592,473,1703862751,893587846,world,2.6718883514404297,0.70036381483078,0.8187727332115173,0.0,0.0,0.0,0.0
2024/01/30/17:43:25.958493,474,1703862751,893628167,world,2.6718883514404297,0.70036381483078,0.8187727332115173,0.0,0.0,0.0,0.0
2024/01/30/17:43:26.004927,475,1703862751,893722920,world,2.6718883514404297,0.70036381483078,0.8187727332115173,0.0,0.0,0.0,0.0
2024/01/30/17:43:26.058268,476,1703862752,213691678,world,2.6718883514404297,0.70036381483078,0.8187727332115173,0.0,0.0,0.0,0.0
2024/01/30/17:43:26.112379,477,1703862752,223553396,world,2.6718883514404297,0.70036381483078,0.8187727332115173,0.0,0.0,0.0,0.0
2024/01/30/17:43:26.165102,478,1703862752,223657458,world,2.6718883514404297,0.70036381483078,0.8187727332115173,0.0,0.0,0.0,0.0
2024/01/30/17:43:26.209377,479,1703862752,223790711,world,2.623709564111674,0.7027361989021301,0.8370227217674255,0.0,0.0,0.0,0.0
2024/01/30/17:43:26.251854,480,1703862752,233554147,world,2.623709564111674,0.7027361989021301,0.8370227217674255,0.0,0.0,0.0,0.0
2024/01/30/17:43:26.298147,481,1703862752,233649561,world,2.623709564111674,0.7027361989021301,0.8370227217674255,0.0,0.0,0.0,0.0
2024/01/30/17:43:26.345352,482,1703862752,243565860,world,2.623709564111674,0.7027361989021301,0.8370227217674255,0.0,0.0,0.0,0.0
2024/01/30/17:43:26.395717,483,1703862752,243678418,world,2.623709564111674,0.7027361989021301,0.8370227217674255,0.0,0.0,0.0,0.0
2024/01/30/17:43:26.459205,484,1703862752,243845813,world,2.623709564111674,0.7027361989021301,0.8370227217674255,0.0,0.0,0.0,0.0
2024/01/30/17:43:26.502510,485,1703862752,253562428,world,2.623709564111674,0.7027361989021301,0.8370227217674255,0.0,0.0,0.0,0.0
2024/01/30/17:43:26.552673,486,1703862752,673771076,world,2.623709564111674,0.7027361989021301,0.8370227217674255,0.0,0.0,0.0,0.0
2024/01/30/17:43:26.596782,487,1703862752,673996041,world,2.623709564111674,0.7027361989021301,0.8370227217674255,0.0,0.0,0.0,0.0
2024/01/30/17:43:26.635893,488,1703862752,703640245,world,2.623709564111674,0.7027361989021301,0.8370227217674255,0.0,0.0,0.0,0.0
2024/01/30/17:43:26.668134,489,1703862752,713646309,world,2.623709564111674,0.7027361989021301,0.8370227217674255,0.0,0.0,0.0,0.0
2024/01/30/17:43:26.714995,490,1703862752,713842241,world,2.623709564111674,0.7027361989021301,0.8370227217674255,0.0,0.0,0.0,0.0
2024/01/30/17:43:26.759774,491,1703862752,723751221,world,2.623709564111674,0.7027361989021301,0.8370227217674255,0.0,0.0,0.0,0.0
2024/01/30/17:43:26.801037,492,1703862752,724122931,world,2.623709564111674,0.7027361989021301,0.8370227217674255,0.0,0.0,0.0,0.0
2024/01/30/17:43:26.855011,493,1703862752,724311390,world,2.623709564111674,0.7027361989021301,0.8370227217674255,0.0,0.0,0.0,0.0
2024/01/30/17:43:26.875797,494,1703862752,733656050,world,2.623709564111674,0.7027361989021301,0.8370227217674255,0.0,0.0,0.0,0.0
2024/01/30/17:43:26.913085,495,1703862752,733840954,world,2.623709564111674,0.7027361989021301,0.8370227217674255,0.0,0.0,0.0,0.0
2024/01/30/17:43:26.951775,496,1703862753,83543209,world,2.623709564111674,0.7027361989021301,0.8370227217674255,0.0,0.0,0.0,0.0
2024/01/30/17:43:26.985052,497,1703862753,83588203,world,2.623709564111674,0.7027361989021301,0.8370227217674255,0.0,0.0,0.0,0.0
2024/01/30/17:43:27.022769,498,1703862753,93541990,world,2.623709564111674,0.7027361989021301,0.8370227217674255,0.0,0.0,0.0,0.0
2024/01/30/17:43:27.075823,499,1703862753,93637727,world,2.623709564111674,0.7027361989021301,0.8370227217674255,0.0,0.0,0.0,0.0
2024/01/30/17:43:27.119062,500,1703862753,103812293,world,2.623709564111674,0.7027361989021301,0.8370227217674255,0.0,0.0,0.0,0.0
2024/01/30/17:43:27.180211,501,1703862753,113638413,world,2.623709564111674,0.7027361989021301,0.8370227217674255,0.0,0.0,0.0,0.0
2024/01/30/17:43:27.229642,502,1703862753,113802210,world,2.623709564111674,0.7027361989021301,0.8370227217674255,0.0,0.0,0.0,0.0
2024/01/30/17:43:27.283955,503,1703862753,123866499,world,2.623709564111674,0.7027361989021301,0.8370227217674255,0.0,0.0,0.0,0.0
2024/01/30/17:43:27.336496,504,1703862753,124034377,world,2.623709564111674,0.7027361989021301,0.8370227217674255,0.0,0.0,0.0,0.0
2024/01/30/17:43:27.381688,505,1703862753,124184862,world,2.623709564111674,0.7027361989021301,0.8370227217674255,0.0,0.0,0.0,0.0
2024/01/30/17:43:27.450310,506,1703862753,553737920,world,2.623709564111674,0.7027361989021301,0.8370227217674255,0.0,0.0,0.0,0.0
2024/01/30/17:43:27.503151,507,1703862753,563700758,world,2.623709564111674,0.7027361989021301,0.8370227217674255,0.0,0.0,0.0,0.0
2024/01/30/17:43:27.549137,508,1703862753,563821566,world,2.623709564111674,0.7027361989021301,0.8370227217674255,0.0,0.0,0.0,0.0
2024/01/30/17:43:27.603067,509,1703862753,573770667,world,2.623709564111674,0.7027361989021301,0.8370227217674255,0.0,0.0,0.0,0.0
2024/01/30/17:43:27.636663,510,1703862753,574069438,world,2.623709564111674,0.7027361989021301,0.8370227217674255,0.0,0.0,0.0,0.0
2024/01/30/17:43:27.669871,511,1703862753,593633365,world,2.623709564111674,0.7027361989021301,0.8370227217674255,0.0,0.0,0.0,0.0
2024/01/30/17:43:27.720860,512,1703862753,603798419,world,2.623709564111674,0.7027361989021301,0.8370227217674255,0.0,0.0,0.0,0.0
2024/01/30/17:43:27.762318,513,1703862753,603893906,world,2.623709564111674,0.7027361989021301,0.8370227217674255,0.0,0.0,0.0,0.0
2024/01/30/17:43:27.794804,514,1703862753,613657508,world,2.623709564111674,0.7027361989021301,0.8370227217674255,0.0,0.0,0.0,0.0
2024/01/30/17:43:27.843958,515,1703862753,613811493,world,2.623709564111674,0.7027361989021301,0.8370227217674255,0.0,0.0,0.0,0.0
2024/01/30/17:43:27.876060,516,1703862753,883642542,world,2.623709564111674,0.7027361989021301,0.8370227217674255,0.0,0.0,0.0,0.0
2024/01/30/17:43:27.925907,517,1703862753,894140414,world,2.623709564111674,0.7027361989021301,0.8370227217674255,0.0,0.0,0.0,0.0
2024/01/30/17:43:27.978024,518,1703862753,894320665,world,2.623709564111674,0.7027361989021301,0.8370227217674255,0.0,0.0,0.0,0.0
2024/01/30/17:43:28.027153,519,1703862753,903643051,world,2.623709564111674,0.7027361989021301,0.8370227217674255,0.0,0.0,0.0,0.0
2024/01/30/17:43:28.063858,520,1703862753,913622451,world,2.623709564111674,0.7027361989021301,0.8370227217674255,0.0,0.0,0.0,0.0
2024/01/30/17:43:28.101497,521,1703862753,923631156,world,2.623709564111674,0.7027361989021301,0.8370227217674255,0.0,0.0,0.0,0.0
2024/01/30/17:43:28.152133,522,1703862753,923751633,world,2.623709564111674,0.7027361989021301,0.8370227217674255,0.0,0.0,0.0,0.0
2024/01/30/17:43:28.205360,523,1703862753,933658801,world,2.623709564111674,0.7027361989021301,0.8370227217674255,0.0,0.0,0.0,0.0
2024/01/30/17:43:28.245941,524,1703862753,933790222,world,2.623709564111674,0.7027361989021301,0.8370227217674255,0.0,0.0,0.0,0.0
2024/01/30/17:43:28.295034,525,1703862754,73600581,world,2.623709564111674,0.7027361989021301,0.8370227217674255,0.0,0.0,0.0,0.0
2024/01/30/17:43:28.354425,526,1703862754,433749258,world,2.623709564111674,0.7027361989021301,0.8370227217674255,0.0,0.0,0.0,0.0
2024/01/30/17:43:28.422353,527,1703862754,443670465,world,2.623709564111674,0.7027361989021301,0.8370227217674255,0.0,0.0,0.0,0.0
2024/01/30/17:43:28.480176,528,1703862754,443789722,world,2.623709564111674,0.7027361989021301,0.8370227217674255,0.0,0.0,0.0,0.0
2024/01/30/17:43:28.538260,529,1703862754,453694445,world,2.623709564111674,0.7027361989021301,0.8370227217674255,0.0,0.0,0.0,0.0
2024/01/30/17:43:28.573477,530,1703862754,453815278,world,2.623709564111674,0.7027361989021301,0.8370227217674255,0.0,0.0,0.0,0.0
2024/01/30/17:43:28.622600,531,1703862754,463692110,world,2.623709564111674,0.7027361989021301,0.8370227217674255,0.0,0.0,0.0,0.0
2024/01/30/17:43:28.661884,532,1703862754,463813332,world,2.623709564111674,0.7027361989021301,0.8370227217674255,0.0,0.0,0.0,0.0
2024/01/30/17:43:28.719230,533,1703862754,473608951,world,2.623709564111674,0.7027361989021301,0.8370227217674255,0.0,0.0,0.0,0.0
2024/01/30/17:43:28.768373,534,1703862754,473688545,world,2.623709564111674,0.7027361989021301,0.8370227217674255,0.0,0.0,0.0,0.0
2024/01/30/17:43:28.838219,535,1703862754,543646054,world,2.623709564111674,0.7027361989021301,0.8370227217674255,0.0,0.0,0.0,0.0
2024/01/30/17:43:28.882554,536,1703862755,23817308,world,2.623709564111674,0.7027361989021301,0.8370227217674255,0.0,0.0,0.0,0.0
2024/01/30/17:43:28.928298,537,1703862755,24009106,world,2.623709564111674,0.7027361989021301,0.8370227217674255,0.0,0.0,0.0,0.0
2024/01/30/17:43:28.973176,538,1703862755,33572574,world,2.623709564111674,0.7027361989021301,0.8370227217674255,0.0,0.0,0.0,0.0
2024/01/30/17:43:29.013047,539,1703862755,33691585,world,2.623709564111674,0.7027361989021301,0.8370227217674255,0.0,0.0,0.0,0.0
2024/01/30/17:43:29.047031,540,1703862755,43755954,world,2.623709564111674,0.7027361989021301,0.8370227217674255,0.0,0.0,0.0,0.0
2024/01/30/17:43:29.094577,541,1703862755,44085257,world,2.623709564111674,0.7027361989021301,0.8370227217674255,0.0,0.0,0.0,0.0
2024/01/30/17:43:29.154527,542,1703862755,63688786,world,2.623709564111674,0.7027361989021301,0.8370227217674255,0.0,0.0,0.0,0.0
2024/01/30/17:43:29.194330,543,1703862755,73543664,world,2.623709564111674,0.7027361989021301,0.8370227217674255,0.0,0.0,0.0,0.0
2024/01/30/17:43:29.233332,544,1703862755,73680265,world,2.623709564111674,0.7027361989021301,0.8370227217674255,0.0,0.0,0.0,0.0
2024/01/30/17:43:29.276727,545,1703862755,73882276,world,2.623709564111674,0.7027361989021301,0.8370227217674255,0.0,0.0,0.0,0.0
2024/01/30/17:43:29.320218,546,1703862755,403764114,world,2.623709564111674,0.7027361989021301,0.8370227217674255,0.0,0.0,0.0,0.0
2024/01/30/17:43:29.366335,547,1703862755,423633079,world,2.623709564111674,0.7027361989021301,0.8370227217674255,0.0,0.0,0.0,0.0
2024/01/30/17:43:29.417203,548,1703862755,423708368,world,2.623709564111674,0.7027361989021301,0.8370227217674255,0.0,0.0,0.0,0.0
2024/01/30/17:43:29.467169,549,1703862755,423773028,world,2.623709564111674,0.7027361989021301,0.8370227217674255,0.0,0.0,0.0,0.0
2024/01/30/17:43:29.506798,550,1703862755,433645273,world,2.623709564111674,0.7027361989021301,0.8370227217674255,0.0,0.0,0.0,0.0
2024/01/30/17:43:29.547004,551,1703862755,443679431,world,2.623709564111674,0.7027361989021301,0.8370227217674255,0.0,0.0,0.0,0.0
2024/01/30/17:43:29.610340,552,1703862755,443796478,world,2.623709564111674,0.7027361989021301,0.8370227217674255,0.0,0.0,0.0,0.0
2024/01/30/17:43:29.666216,553,1703862755,453693055,world,2.623709564111674,0.7027361989021301,0.8370227217674255,0.0,0.0,0.0,0.0
2024/01/30/17:43:29.726136,554,1703862755,463825871,world,2.623709564111674,0.7027361989021301,0.8370227217674255,0.0,0.0,0.0,0.0
2024/01/30/17:43:29.768971,555,1703862755,483605272,world,2.623709564111674,0.7027361989021301,0.8370227217674255,0.0,0.0,0.0,0.0
2024/01/30/17:43:29.826746,556,1703862755,993697706,world,2.623709564111674,0.7027361989021301,0.8370227217674255,0.0,0.0,0.0,0.0
2024/01/30/17:43:29.878321,557,1703862755,993925301,world,2.623709564111674,0.7027361989021301,0.8370227217674255,0.0,0.0,0.0,0.0
2024/01/30/17:43:29.921612,558,1703862755,994175192,world,2.623709564111674,0.7027361989021301,0.8370227217674255,0.0,0.0,0.0,0.0
2024/01/30/17:43:29.965851,559,1703862756,3684904,world,2.623709564111674,0.7027361989021301,0.8370227217674255,0.0,0.0,0.0,0.0
2024/01/30/17:43:30.016332,560,1703862756,3915937,world,2.623709564111674,0.7027361989021301,0.8370227217674255,0.0,0.0,0.0,0.0
2024/01/30/17:43:30.068287,561,1703862756,13691343,world,2.623709564111674,0.7027361989021301,0.8370227217674255,0.0,0.0,0.0,0.0
2024/01/30/17:43:30.105100,562,1703862756,13889269,world,2.623709564111674,0.7027361989021301,0.8370227217674255,0.0,0.0,0.0,0.0
2024/01/30/17:43:30.159110,563,1703862756,23678537,world,2.623709564111674,0.7027361989021301,0.8370227217674255,0.0,0.0,0.0,0.0
2024/01/30/17:43:30.201905,564,1703862756,23785382,world,2.623709564111674,0.7027361989021301,0.8370227217674255,0.0,0.0,0.0,0.0
2024/01/30/17:43:30.254380,565,1703862756,23947540,world,2.623709564111674,0.7027361989021301,0.8370227217674255,0.0,0.0,0.0,0.0
2024/01/30/17:43:30.301943,566,1703862756,473769172,world,2.623709564111674,0.7027361989021301,0.8370227217674255,0.0,0.0,0.0,0.0
2024/01/30/17:43:30.347391,567,1703862756,473883843,world,2.623709564111674,0.7027361989021301,0.8370227217674255,0.0,0.0,0.0,0.0
2024/01/30/17:43:30.390673,568,1703862756,474222721,world,2.623709564111674,0.7027361989021301,0.8370227217674255,0.0,0.0,0.0,0.0
2024/01/30/17:43:30.436508,569,1703862756,483676535,world,2.623709564111674,0.7027361989021301,0.8370227217674255,0.0,0.0,0.0,0.0
2024/01/30/17:43:30.467860,570,1703862756,483835401,world,2.623709564111674,0.7027361989021301,0.8370227217674255,0.0,0.0,0.0,0.0
2024/01/30/17:43:30.513683,571,1703862756,493859515,world,2.623709564111674,0.7027361989021301,0.8370227217674255,0.0,0.0,0.0,0.0
2024/01/30/17:43:30.548754,572,1703862756,503637629,world,2.623709564111674,0.7027361989021301,0.8370227217674255,0.0,0.0,0.0,0.0
2024/01/30/17:43:30.589282,573,1703862756,503737556,world,2.623709564111674,0.7027361989021301,0.8370227217674255,0.0,0.0,0.0,0.0
2024/01/30/17:43:30.619557,574,1703862756,513742579,world,2.623709564111674,0.7027361989021301,0.8370227217674255,0.0,0.0,0.0,0.0
2024/01/30/17:43:30.637984,575,1703862756,513920864,world,2.623709564111674,0.7027361989021301,0.8370227217674255,0.0,0.0,0.0,0.0
2024/01/30/17:43:30.680248,576,1703862756,843635068,world,2.623709564111674,0.7027361989021301,0.8370227217674255,0.0,0.0,0.0,0.0
2024/01/30/17:43:30.723362,577,1703862756,843724933,world,2.623709564111674,0.7027361989021301,0.8370227217674255,0.0,0.0,0.0,0.0
2024/01/30/17:43:30.753895,578,1703862756,843970143,world,2.623709564111674,0.7027361989021301,0.8370227217674255,0.0,0.0,0.0,0.0
2024/01/30/17:43:30.805400,579,1703862756,853776632,world,2.623709564111674,0.7027361989021301,0.8370227217674255,0.0,0.0,0.0,0.0
2024/01/30/17:43:30.858947,580,1703862756,853986829,world,2.623709564111674,0.7027361989021301,0.8370227217674255,0.0,0.0,0.0,0.0
2024/01/30/17:43:30.885190,581,1703862756,863721096,world,2.623709564111674,0.7027361989021301,0.8370227217674255,0.0,0.0,0.0,0.0
2024/01/30/17:43:30.916745,582,1703862756,863945509,world,2.623709564111674,0.7027361989021301,0.8370227217674255,0.0,0.0,0.0,0.0
2024/01/30/17:43:30.964182,583,1703862756,873717757,world,2.623709564111674,0.7027361989021301,0.8370227217674255,0.0,0.0,0.0,0.0
2024/01/30/17:43:30.981029,584,1703862756,873794551,world,2.623709564111674,0.7027361989021301,0.8370227217674255,0.0,0.0,0.0,0.0
2024/01/30/17:43:31.027034,585,1703862756,873896097,world,2.623709564111674,0.7027361989021301,0.8370227217674255,0.0,0.0,0.0,0.0
2024/01/30/17:43:31.075823,586,1703862757,223633351,world,2.623709564111674,0.7027361989021301,0.8370227217674255,0.0,0.0,0.0,0.0
2024/01/30/17:43:31.109633,587,1703862757,233563537,world,2.623709564111674,0.7027361989021301,0.8370227217674255,0.0,0.0,0.0,0.0
2024/01/30/17:43:31.154160,588,1703862757,233610347,world,2.623709564111674,0.7027361989021301,0.8370227217674255,0.0,0.0,0.0,0.0
2024/01/30/17:43:31.180685,589,1703862757,243540761,world,2.623709564111674,0.7027361989021301,0.8370227217674255,0.0,0.0,0.0,0.0
2024/01/30/17:43:31.227911,590,1703862757,243590962,world,2.623709564111674,0.7027361989021301,0.8370227217674255,0.0,0.0,0.0,0.0
2024/01/30/17:43:31.253277,591,1703862757,243656822,world,2.623709564111674,0.7027361989021301,0.8370227217674255,0.0,0.0,0.0,0.0
2024/01/30/17:43:31.294107,592,1703862757,253582347,world,2.623709564111674,0.7027361989021301,0.8370227217674255,0.0,0.0,0.0,0.0
2024/01/30/17:43:31.327010,593,1703862757,253626327,world,2.623709564111674,0.7027361989021301,0.8370227217674255,0.0,0.0,0.0,0.0
2024/01/30/17:43:31.355612,594,1703862757,263552970,world,2.623709564111674,0.7027361989021301,0.8370227217674255,0.0,0.0,0.0,0.0
2024/01/30/17:43:31.387342,595,1703862757,263647644,world,2.623709564111674,0.7027361989021301,0.8370227217674255,0.0,0.0,0.0,0.0
2024/01/30/17:43:31.448395,596,1703862757,593832853,world,2.623709564111674,0.7027361989021301,0.8370227217674255,0.0,0.0,0.0,0.0
2024/01/30/17:43:31.481402,597,1703862757,593988951,world,2.623709564111674,0.7027361989021301,0.8370227217674255,0.0,0.0,0.0,0.0
2024/01/30/17:43:31.515301,598,1703862757,604801295,world,2.623709564111674,0.7027361989021301,0.8370227217674255,0.0,0.0,0.0,0.0
2024/01/30/17:43:31.577323,599,1703862757,605708348,world,2.623709564111674,0.7027361989021301,0.8370227217674255,0.0,0.0,0.0,0.0
2024/01/30/17:43:31.611567,600,1703862757,613658325,world,2.623709564111674,0.7027361989021301,0.8370227217674255,0.0,0.0,0.0,0.0
2024/01/30/17:43:31.650982,601,1703862757,613779384,world,2.623709564111674,0.7027361989021301,0.8370227217674255,0.0,0.0,0.0,0.0
2024/01/30/17:43:31.687593,602,1703862757,623635068,world,2.623709564111674,0.7027361989021301,0.8370227217674255,0.0,0.0,0.0,0.0
2024/01/30/17:43:31.714610,603,1703862757,623790856,world,2.623709564111674,0.7027361989021301,0.8370227217674255,0.0,0.0,0.0,0.0
2024/01/30/17:43:31.744425,604,1703862757,633561758,world,2.623709564111674,0.7027361989021301,0.8370227217674255,0.0,0.0,0.0,0.0
2024/01/30/17:43:31.782692,605,1703862757,633631691,world,2.623709564111674,0.7027361989021301,0.8370227217674255,0.0,0.0,0.0,0.0
2024/01/30/17:43:31.823060,606,1703862757,993857518,world,2.623709564111674,0.7027361989021301,0.8370227217674255,0.0,0.0,0.0,0.0
2024/01/30/17:43:31.855316,607,1703862758,3707540,world,2.623709564111674,0.7027361989021301,0.8370227217674255,0.0,0.0,0.0,0.0
2024/01/30/17:43:31.900634,608,1703862758,3771468,world,2.623709564111674,0.7027361989021301,0.8370227217674255,0.0,0.0,0.0,0.0
2024/01/30/17:43:31.967768,609,1703862758,13606170,world,2.623709564111674,0.7027361989021301,0.8370227217674255,0.0,0.0,0.0,0.0
2024/01/30/17:43:32.018549,610,1703862758,13724921,world,2.623709564111674,0.7027361989021301,0.8370227217674255,0.0,0.0,0.0,0.0
2024/01/30/17:43:32.072130,611,1703862758,23750055,world,2.623709564111674,0.7027361989021301,0.8370227217674255,0.0,0.0,0.0,0.0
2024/01/30/17:43:32.104875,612,1703862758,23849835,world,2.623709564111674,0.7027361989021301,0.8370227217674255,0.0,0.0,0.0,0.0
2024/01/30/17:43:32.154737,613,1703862758,24063635,world,2.623709564111674,0.7027361989021301,0.8370227217674255,0.0,0.0,0.0,0.0
2024/01/30/17:43:32.201119,614,1703862758,33853163,world,2.623709564111674,0.7027361989021301,0.8370227217674255,0.0,0.0,0.0,0.0
2024/01/30/17:43:32.237490,615,1703862758,34097676,world,2.623709564111674,0.7027361989021301,0.8370227217674255,0.0,0.0,0.0,0.0
2024/01/30/17:43:32.281302,616,1703862758,423736101,world,2.623709564111674,0.7027361989021301,0.8370227217674255,0.0,0.0,0.0,0.0
2024/01/30/17:43:32.329535,617,1703862758,423797631,world,2.623709564111674,0.7027361989021301,0.8370227217674255,0.0,0.0,0.0,0.0
2024/01/30/17:43:32.360343,618,1703862758,433852254,world,2.623709564111674,0.7027361989021301,0.8370227217674255,0.0,0.0,0.0,0.0
2024/01/30/17:43:32.402104,619,1703862758,443679463,world,2.623709564111674,0.7027361989021301,0.8370227217674255,0.0,0.0,0.0,0.0
2024/01/30/17:43:32.462270,620,1703862758,453792359,world,2.623709564111674,0.7027361989021301,0.8370227217674255,0.0,0.0,0.0,0.0
2024/01/30/17:43:32.499209,621,1703862758,463678926,world,2.623709564111674,0.7027361989021301,0.8370227217674255,0.0,0.0,0.0,0.0
2024/01/30/17:43:32.545121,622,1703862758,463792634,world,2.623709564111674,0.7027361989021301,0.8370227217674255,0.0,0.0,0.0,0.0
2024/01/30/17:43:32.591759,623,1703862758,473705372,world,2.623709564111674,0.7027361989021301,0.8370227217674255,0.0,0.0,0.0,0.0
2024/01/30/17:43:32.621078,624,1703862758,483783269,world,2.623709564111674,0.7027361989021301,0.8370227217674255,0.0,0.0,0.0,0.0
2024/01/30/17:43:32.665874,625,1703862758,493995208,world,2.623709564111674,0.7027361989021301,0.8370227217674255,0.0,0.0,0.0,0.0
2024/01/30/17:43:32.714041,626,1703862758,854104404,world,2.6135122776031494,0.7360799312591553,0.8990633487701416,0.0,0.0,0.0,0.0
2024/01/30/17:43:32.757479,627,1703862758,863739236,world,2.6146655082702637,0.7370686531066895,0.8954623341560364,0.0,0.0,0.0,0.0
2024/01/30/17:43:32.796777,628,1703862758,863859065,world,2.6141574382781982,0.7397660613059998,0.9246716499328613,0.0,0.0,0.0,0.0
2024/01/30/17:43:32.853313,629,1703862758,873686376,world,2.6165993213653564,0.7344801425933838,0.8909832239151001,0.0,0.0,0.0,0.0
2024/01/30/17:43:32.905864,630,1703862758,883858754,world,2.61974835395813,0.7334693670272827,0.8941593170166016,0.0,0.0,0.0,0.0
2024/01/30/17:43:32.966367,631,1703862758,884095499,world,2.6165058612823486,0.749238908290863,0.9078531861305237,0.0,0.0,0.0,0.0
2024/01/30/17:43:33.004171,632,1703862758,894654843,world,2.6258184909820557,0.7337417602539062,0.9257691502571106,0.0,0.0,0.0,0.0
2024/01/30/17:43:33.054123,633,1703862758,903875039,world,2.6195497512817383,0.7487285137176514,0.9029192328453064,0.0,0.0,0.0,0.0
2024/01/30/17:43:33.097098,634,1703862758,913708477,world,2.6234304904937744,0.7344701886177063,0.8873165249824524,0.0,0.0,0.0,0.0
2024/01/30/17:43:33.138824,635,1703862758,913859201,world,2.624037027359009,0.7342493534088135,0.886722981929779,0.0,0.0,0.0,0.0
2024/01/30/17:43:33.175834,636,1703862759,343996675,world,2.6562652587890625,0.7212995886802673,0.8783136010169983,0.0,0.0,0.0,0.0
2024/01/30/17:43:33.215371,637,1703862759,353703441,world,2.656775712966919,0.7212129235267639,0.8775973320007324,0.0,0.0,0.0,0.0
2024/01/30/17:43:33.257289,638,1703862759,353798956,world,2.6571857929229736,0.7212169170379639,0.8777529001235962,0.0,0.0,0.0,0.0
2024/01/30/17:43:33.299571,639,1703862759,363629939,world,2.6575334072113037,0.7210404872894287,0.8774318099021912,0.0,0.0,0.0,0.0
2024/01/30/17:43:33.349030,640,1703862759,363787687,world,2.6590847969055176,0.7206398844718933,0.877038836479187,0.0,0.0,0.0,0.0
2024/01/30/17:43:33.387190,641,1703862759,373679101,world,2.6581335067749023,0.7206190824508667,0.8763395547866821,0.0,0.0,0.0,0.0
2024/01/30/17:43:33.428102,642,1703862759,373744309,world,2.658604860305786,0.7205979228019714,0.8759002089500427,0.0,0.0,0.0,0.0
2024/01/30/17:43:33.480989,643,1703862759,373909254,world,2.6594293117523193,0.7207086682319641,0.875458836555481,0.0,0.0,0.0,0.0
2024/01/30/17:43:33.522910,644,1703862759,383606983,world,2.6599204540252686,0.7206498980522156,0.8751146793365479,0.0,0.0,0.0,0.0
2024/01/30/17:43:33.577880,645,1703862759,383652565,world,2.664475917816162,0.7102949619293213,0.8513117432594299,0.0,0.0,0.0,0.0
2024/01/30/17:43:33.627227,646,1703862759,693819223,world,2.666260242462158,0.7042901515960693,0.8459585309028625,0.0,0.0,0.0,0.0
2024/01/30/17:43:33.682147,647,1703862759,694084932,world,2.6665163040161133,0.7044001817703247,0.845878005027771,0.0,0.0,0.0,0.0
2024/01/30/17:43:33.726203,648,1703862759,703636242,world,2.6667158603668213,0.7045491933822632,0.8458501100540161,0.0,0.0,0.0,0.0
2024/01/30/17:43:33.783071,649,1703862759,703704270,world,2.666961669921875,0.7047181725502014,0.8457993865013123,0.0,0.0,0.0,0.0
2024/01/30/17:43:33.861128,650,1703862759,713646696,world,2.6704256534576416,0.7077945470809937,0.8139331936836243,0.0,0.0,0.0,0.0
2024/01/30/17:43:33.895523,651,1703862759,723690184,world,2.670907735824585,0.7080658078193665,0.813834547996521,0.0,0.0,0.0,0.0
2024/01/30/17:43:33.948919,652,1703862759,723883396,world,2.6710450649261475,0.708103358745575,0.813822329044342,0.0,0.0,0.0,0.0
2024/01/30/17:43:33.998855,653,1703862759,733766543,world,2.6711766719818115,0.7080976963043213,0.8137625455856323,0.0,0.0,0.0,0.0
2024/01/30/17:43:34.046571,654,1703862759,763793110,world,2.6722159385681152,0.707615852355957,0.8141720294952393,0.0,0.0,0.0,0.0
2024/01/30/17:43:34.098590,655,1703862759,763976728,world,2.6721365451812744,0.7078796625137329,0.813630998134613,0.0,0.0,0.0,0.0
2024/01/30/17:43:34.165645,656,1703862760,283833235,world,2.672806739807129,0.6989995241165161,0.8185634613037109,0.0,0.0,0.0,0.0
2024/01/30/17:43:34.224060,657,1703862760,293842351,world,2.6728224754333496,0.6989883184432983,0.8185393810272217,0.0,0.0,0.0,0.0
2024/01/30/17:43:34.273175,658,1703862760,294257684,world,2.6728107929229736,0.6989710330963135,0.8185389041900635,0.0,0.0,0.0,0.0
2024/01/30/17:43:34.305241,659,1703862760,303794842,world,2.6728107929229736,0.6989710330963135,0.8185389041900635,0.0,0.0,0.0,0.0
2024/01/30/17:43:34.340388,660,1703862760,313747063,world,2.663233518600464,0.6806263327598572,0.8287826776504517,0.0,0.0,0.0,0.0
2024/01/30/17:43:34.382693,661,1703862760,323762439,world,2.66552734375,0.6823111772537231,0.8299869894981384,0.0,0.0,0.0,0.0
2024/01/30/17:43:34.449882,662,1703862760,323931944,world,2.663322925567627,0.6807399392127991,0.8287886381149292,0.0,0.0,0.0,0.0
2024/01/30/17:43:34.493222,663,1703862760,324106214,world,2.663419723510742,0.6808230876922607,0.8288072347640991,0.0,0.0,0.0,0.0
2024/01/30/17:43:34.535718,664,1703862760,333736111,world,2.6635472774505615,0.6809053421020508,0.8287882804870605,0.0,0.0,0.0,0.0
2024/01/30/17:43:34.582766,665,1703862760,333823925,world,2.6714797019958496,0.7050356864929199,0.8384044170379639,0.0,0.0,0.0,0.0
2024/01/30/17:43:34.628641,666,1703862760,773731565,world,2.674814224243164,0.7051640748977661,0.8409648537635803,0.0,0.0,0.0,0.0
2024/01/30/17:43:34.667864,667,1703862760,773808298,world,2.674798011779785,0.7051304578781128,0.8409592509269714,0.0,0.0,0.0,0.0
2024/01/30/17:43:34.721700,668,1703862760,773943330,world,2.6747958660125732,0.705132782459259,0.8409585952758789,0.0,0.0,0.0,0.0
2024/01/30/17:43:34.762403,669,1703862760,783635993,world,2.674772262573242,0.7051840424537659,0.8410086631774902,0.0,0.0,0.0,0.0
2024/01/30/17:43:34.797850,670,1703862760,783741529,world,2.674769401550293,0.7051594853401184,0.8410095572471619,0.0,0.0,0.0,0.0
2024/01/30/17:43:34.864835,671,1703862760,793551748,world,2.674792766571045,0.7051460146903992,0.8410010933876038,0.0,0.0,0.0,0.0
2024/01/30/17:43:34.908098,672,1703862760,793664663,world,2.674792766571045,0.7051460146903992,0.8410010933876038,0.0,0.0,0.0,0.0
2024/01/30/17:43:34.962675,673,1703862760,793784163,world,2.674776554107666,0.705317497253418,0.8411233425140381,0.0,0.0,0.0,0.0
2024/01/30/17:43:35.011263,674,1703862760,803609885,world,2.6747846603393555,0.7053712010383606,0.8411403894424438,0.0,0.0,0.0,0.0
2024/01/30/17:43:35.058181,675,1703862760,803747616,world,2.671640396118164,0.70442134141922,0.8377628922462463,0.0,0.0,0.0,0.0
2024/01/30/17:43:35.105130,676,1703862761,263698291,world,2.674290657043457,0.7085873484611511,0.8439652919769287,0.0,0.0,0.0,0.0
2024/01/30/17:43:35.164686,677,1703862761,263804452,world,2.6742992401123047,0.7085920572280884,0.8440021276473999,0.0,0.0,0.0,0.0
2024/01/30/17:43:35.219253,678,1703862761,273713205,world,2.674295663833618,0.7086337804794312,0.8439868688583374,0.0,0.0,0.0,0.0
2024/01/30/17:43:35.284516,679,1703862761,273869633,world,2.6743004322052,0.7086183428764343,0.8439425826072693,0.0,0.0,0.0,0.0
2024/01/30/17:43:35.322775,680,1703862761,274111954,world,2.6742777824401855,0.7086327075958252,0.8439671397209167,0.0,0.0,0.0,0.0
2024/01/30/17:43:35.354359,681,1703862761,284008540,world,2.6742496490478516,0.7086185216903687,0.8439761996269226,0.0,0.0,0.0,0.0
2024/01/30/17:43:35.389587,682,1703862761,284132425,world,2.6742360591888428,0.7086545825004578,0.8439786434173584,0.0,0.0,0.0,0.0
2024/01/30/17:43:35.438139,683,1703862761,293592086,world,2.6742360591888428,0.7086545825004578,0.8439786434173584,0.0,0.0,0.0,0.0
2024/01/30/17:43:35.477883,684,1703862761,293666749,world,2.6742496490478516,0.7086247801780701,0.8439598679542542,0.0,0.0,0.0,0.0
2024/01/30/17:43:35.517980,685,1703862761,293781156,world,2.674098253250122,0.7086971402168274,0.8439726829528809,0.0,0.0,0.0,0.0
2024/01/30/17:43:35.557516,686,1703862761,723701273,world,2.6706457138061523,0.6930407881736755,0.829625129699707,0.0,0.0,0.0,0.0
2024/01/30/17:43:35.603427,687,1703862761,723769692,world,2.670642137527466,0.6930561661720276,0.8296509385108948,0.0,0.0,0.0,0.0
2024/01/30/17:43:35.641868,688,1703862761,733622966,world,2.6705846786499023,0.6930568218231201,0.8295793533325195,0.0,0.0,0.0,0.0
2024/01/30/17:43:35.669708,689,1703862761,733729489,world,2.6706361770629883,0.6930662393569946,0.8296151757240295,0.0,0.0,0.0,0.0
2024/01/30/17:43:35.699863,690,1703862761,743656349,world,2.670639753341675,0.693074107170105,0.8296148777008057,0.0,0.0,0.0,0.0
2024/01/30/17:43:35.740304,691,1703862761,743789262,world,2.670661211013794,0.693087637424469,0.8295761346817017,0.0,0.0,0.0,0.0
2024/01/30/17:43:35.782238,692,1703862761,753565213,world,2.67067813873291,0.6930629014968872,0.8295639753341675,0.0,0.0,0.0,0.0
2024/01/30/17:43:35.824392,693,1703862761,753625023,world,2.6707723140716553,0.6930521726608276,0.8296170234680176,0.0,0.0,0.0,0.0
2024/01/30/17:43:35.846756,694,1703862761,763934647,world,2.670626640319824,0.6930522918701172,0.829569399356842,0.0,0.0,0.0,0.0
2024/01/30/17:43:35.869645,695,1703862761,764015434,world,2.6707887649536133,0.6930413842201233,0.829628586769104,0.0,0.0,0.0,0.0
2024/01/30/17:43:35.890008,696,1703862762,94140722,world,2.671173095703125,0.6928306221961975,0.8298225998878479,0.0,0.0,0.0,0.0
2024/01/30/17:43:35.920298,697,1703862762,103698567,world,2.671226739883423,0.692848801612854,0.8297808170318604,0.0,0.0,0.0,0.0
2024/01/30/17:43:35.942571,698,1703862762,103862406,world,2.671224594116211,0.6928544640541077,0.8297753930091858,0.0,0.0,0.0,0.0
2024/01/30/17:43:35.976843,699,1703862762,113727531,world,2.6712393760681152,0.6928426027297974,0.8297783732414246,0.0,0.0,0.0,0.0
2024/01/30/17:43:36.010884,700,1703862762,113857198,world,2.6712708473205566,0.6928355097770691,0.8297964334487915,0.0,0.0,0.0,0.0
2024/01/30/17:43:36.056652,701,1703862762,123549458,world,2.6712708473205566,0.6928355097770691,0.8297964334487915,0.0,0.0,0.0,0.0
2024/01/30/17:43:36.107880,702,1703862762,123629259,world,2.6711714267730713,0.6928461194038391,0.8297258615493774,0.0,0.0,0.0,0.0
2024/01/30/17:43:36.138582,703,1703862762,123727727,world,2.67117977142334,0.6928308606147766,0.8297897577285767,0.0,0.0,0.0,0.0
2024/01/30/17:43:36.186949,704,1703862762,133575489,world,2.6711747646331787,0.6928313970565796,0.8297950029373169,0.0,0.0,0.0,0.0
2024/01/30/17:43:36.211150,705,1703862762,133593878,world,2.6711513996124268,0.6927922368049622,0.8298358917236328,0.0,0.0,0.0,0.0
2024/01/30/17:43:36.249777,706,1703862762,393865757,world,2.668705463409424,0.7054318189620972,0.8488565683364868,0.0,0.0,0.0,0.0
2024/01/30/17:43:36.278681,707,1703862762,403628719,world,2.6687300205230713,0.7054018378257751,0.8488143086433411,0.0,0.0,0.0,0.0
2024/01/30/17:43:36.337487,708,1703862762,403757489,world,2.6692371368408203,0.7055974006652832,0.8494151830673218,0.0,0.0,0.0,0.0
2024/01/30/17:43:36.402003,709,1703862762,413756094,world,2.66878604888916,0.7054102420806885,0.8489916920661926,0.0,0.0,0.0,0.0
2024/01/30/17:43:36.528528,710,1703862762,413988538,world,2.6687958240509033,0.7054269909858704,0.8490111231803894,0.0,0.0,0.0,0.0
2024/01/30/17:43:36.591323,711,1703862762,423747786,world,2.668760061264038,0.7053960561752319,0.848996102809906,0.0,0.0,0.0,0.0
2024/01/30/17:43:36.630936,712,1703862762,424000005,world,2.6687850952148438,0.7053546905517578,0.8490060567855835,0.0,0.0,0.0,0.0
2024/01/30/17:43:36.665141,713,1703862762,424264910,world,2.6691179275512695,0.7053828239440918,0.8492288589477539,0.0,0.0,0.0,0.0
2024/01/30/17:43:36.717330,714,1703862762,433825860,world,2.669093132019043,0.7053550481796265,0.8492128849029541,0.0,0.0,0.0,0.0
2024/01/30/17:43:36.754616,715,1703862762,434245802,world,2.668775796890259,0.7052825689315796,0.8490025997161865,0.0,0.0,0.0,0.0
2024/01/30/17:43:36.801254,716,1703862762,943750545,world,2.671994209289551,0.7003569006919861,0.8187798857688904,0.0,0.0,0.0,0.0
2024/01/30/17:43:36.859082,717,1703862762,943911997,world,2.6720893383026123,0.7003148794174194,0.8187558054924011,0.0,0.0,0.0,0.0
2024/01/30/17:43:36.902473,718,1703862762,944105871,world,2.671966791152954,0.7003631591796875,0.8187367916107178,0.0,0.0,0.0,0.0
2024/01/30/17:43:36.957297,719,1703862762,953676049,world,2.671962022781372,0.7003427743911743,0.8187261819839478,0.0,0.0,0.0,0.0
2024/01/30/17:43:37.014412,720,1703862762,953858575,world,2.6719448566436768,0.7003851532936096,0.8187151551246643,0.0,0.0,0.0,0.0
2024/01/30/17:43:37.068756,721,1703862762,963804568,world,2.671945333480835,0.7003891468048096,0.8186891078948975,0.0,0.0,0.0,0.0
2024/01/30/17:43:37.118039,722,1703862762,963966158,world,2.671945333480835,0.7003891468048096,0.8186891078948975,0.0,0.0,0.0,0.0
2024/01/30/17:43:37.161871,723,1703862762,973631192,world,2.671945333480835,0.7003891468048096,0.8186891078948975,0.0,0.0,0.0,0.0
2024/01/30/17:43:37.199752,724,1703862762,973715442,world,2.671926736831665,0.7003059983253479,0.8187084794044495,0.0,0.0,0.0,0.0
2024/01/30/17:43:37.246006,725,1703862762,973786359,world,2.6718790531158447,0.7003233432769775,0.8186653256416321,0.0,0.0,0.0,0.0
2024/01/30/17:43:37.287123,726,1703862763,343682619,world,2.671966314315796,0.7003726363182068,0.8187670707702637,0.0,0.0,0.0,0.0
2024/01/30/17:43:37.315438,727,1703862763,343744439,world,2.67199444770813,0.7003257274627686,0.8187716007232666,0.0,0.0,0.0,0.0
2024/01/30/17:43:37.348870,728,1703862763,363902771,world,2.6719164848327637,0.700343132019043,0.8188351988792419,0.0,0.0,0.0,0.0
2024/01/30/17:43:37.371354,729,1703862763,373641731,world,2.6719424724578857,0.7003539204597473,0.8188256621360779,0.0,0.0,0.0,0.0
2024/01/30/17:43:37.453140,730,1703862763,393792043,world,2.671910524368286,0.7003576159477234,0.8187844157218933,0.0,0.0,0.0,0.0
2024/01/30/17:43:37.514025,731,1703862763,394167943,world,2.6719086170196533,0.7004094123840332,0.8187971711158752,0.0,0.0,0.0,0.0
2024/01/30/17:43:37.553444,732,1703862763,403728502,world,2.6719460487365723,0.7003670334815979,0.8187799453735352,0.0,0.0,0.0,0.0
2024/01/30/17:43:37.584346,733,1703862763,403842905,world,2.671884298324585,0.7004119157791138,0.8187902569770813,0.0,0.0,0.0,0.0
2024/01/30/17:43:37.606912,734,1703862763,413712801,world,2.6719038486480713,0.700407862663269,0.8187865614891052,0.0,0.0,0.0,0.0
2024/01/30/17:43:37.631095,735,1703862763,413797329,world,2.6718883514404297,0.70036381483078,0.8187727332115173,0.0,0.0,0.0,0.0
