__time,/pred_cup_pose/header/header/seq,/pred_cup_pose/header/header/stamp,/pred_cup_pose/pose/orientation/w,/pred_cup_pose/pose/orientation/x,/pred_cup_pose/pose/orientation/y,/pred_cup_pose/pose/orientation/z,/pred_cup_pose/pose/position/x,/pred_cup_pose/pose/position/y,/pred_cup_pose/pose/position/z,/vrpn_mocap/cup/pose/header/header/seq,/vrpn_mocap/cup/pose/header/header/stamp,/vrpn_mocap/cup/pose/pose/orientation/pitch,/vrpn_mocap/cup/pose/pose/orientation/roll,/vrpn_mocap/cup/pose/pose/orientation/w,/vrpn_mocap/cup/pose/pose/orientation/x,/vrpn_mocap/cup/pose/pose/orientation/y,/vrpn_mocap/cup/pose/pose/orientation/yaw,/vrpn_mocap/cup/pose/pose/orientation/z,/vrpn_mocap/cup/pose/pose/position/x,/vrpn_mocap/cup/pose/pose/position/y,/vrpn_mocap/cup/pose/pose/position/z
1706627032.988811,,,,,,,,,,0.000000000,1703862887.503839493,-0.065081009,2.990558960,0.073234320,0.994833827,0.059725955,0.124854080,0.037083104,2.659002304,0.702301681,0.816417754
1706627032.997633,,,,,,,,,,0.000000000,1703862887.513699055,-0.064607417,2.991200977,0.072928920,0.994861722,0.059792601,0.124927489,0.036831103,2.658977747,0.702340543,0.816419601
1706627033.010097,,,,,,,,,,0.000000000,1703862887.524046898,-0.064564044,2.991188912,0.072938427,0.994865239,0.059737056,0.124812926,0.036805715,2.659006119,0.702315271,0.816401184
1706627033.015535,,,,,,,,,,0.000000000,1703862887.533789873,-0.064935495,2.991418346,0.072818831,0.994879007,0.059551418,0.124459940,0.036970727,2.658995390,0.702328801,0.816407263
1706627033.026525,,,,,,,,,,0.000000000,1703862887.543503284,-0.064395616,2.990944636,0.073061794,0.994852781,0.059836019,0.125007867,0.036736377,2.658986568,0.702334166,0.816414952
1706627033.030058,,,,,,,,,,0.000000000,1703862887.543626785,-0.064310854,2.990766311,0.073163718,0.994864464,0.059551839,0.124436580,0.036678664,2.658945799,0.702324271,0.816412032
1706627033.037374,,,,,,,,,,0.000000000,1703862887.553822517,-0.064794393,2.990699564,0.073177293,0.994848907,0.059641428,0.124656656,0.036929160,2.658974886,0.702330649,0.816426218
1706627033.047540,,,,,,,,,,0.000000000,1703862887.563548565,-0.064452972,2.990826883,0.073139146,0.994881153,0.059273101,0.123885012,0.036727365,2.658941984,0.702347279,0.816445470
1706627033.051412,,,,,,,,,,0.000000000,1703862887.563602686,-0.063831668,2.990609703,0.073272131,0.994889855,0.059155516,0.123608431,0.036414701,2.658931017,0.702360511,0.816436708
1706627033.056406,,,,,,,,,,0.000000000,1703862887.573740482,-0.064406484,2.991849912,0.072620310,0.994900525,0.059603292,0.124507449,0.036696523,2.658920527,0.702359915,0.816388547
1706627033.065324,,,,,,,,,,0.000000000,1703862887.583501577,-0.064224016,2.990685687,0.073207274,0.994863749,0.059535868,0.124400712,0.036636569,2.658968925,0.702323794,0.816408694
1706627033.069690,,,,,,,,,,0.000000000,1703862887.583543539,-0.064333446,2.991108046,0.073004343,0.994895101,0.059249666,0.123818267,0.036657158,2.658940792,0.702359378,0.816423535
1706627033.077285,,,,,,,,,,0.000000000,1703862887.593663692,-0.064446254,2.990779496,0.073151909,0.994861722,0.059571147,0.124485400,0.036747392,2.658967495,0.702339947,0.816418469
1706627033.083609,,,,,,,,,,0.000000000,1703862887.593804121,-0.065485032,2.991558471,0.072723873,0.994864464,0.059734844,0.124865878,0.037254598,2.658991098,0.702338815,0.816405058
1706627033.094250,8411.000000000,1703862886.433701515,0.000000000,0.000000000,0.000000000,0.000000000,3.059293747,0.705576837,0.818772495,,,,,,,,,,,,
1706627033.098379,,,,,,,,,,0.000000000,1703862887.613547802,-0.064530427,2.990502680,0.073286518,0.994849741,0.059572756,0.124505412,0.036798224,2.658978224,0.702307045,0.816421926
1706627033.106554,,,,,,,,,,0.000000000,1703862887.623673677,-0.064844910,2.990252922,0.073403709,0.994841337,0.059473116,0.124338795,0.036955934,2.658991575,0.702316165,0.816454232
1706627033.110352,,,,,,,,,,0.000000000,1703862887.623741865,-0.064632976,2.991737311,0.072659276,0.994877577,0.059856173,0.125037409,0.036831770,2.658995390,0.702339351,0.816407204
1706627033.117331,,,,,,,,,,0.000000000,1703862887.633546352,-0.065137855,2.991992527,0.072518617,0.994884133,0.059771150,0.124895894,0.037070073,2.658975124,0.702334046,0.816394746
1706627033.127550,,,,,,,,,,0.000000000,1703862887.643669128,-0.064378958,2.990416898,0.073352739,0.994878888,0.059071094,0.123488301,0.036688160,2.658951044,0.702355206,0.816434145
1706627033.138458,,,,,,,,,,0.000000000,1703862887.653670549,-0.063847878,2.989880709,0.073628835,0.994854093,0.059289224,0.123905182,0.036455248,2.658947945,0.702330947,0.816452920
1706627033.147348,,,,,,,,,,0.000000000,1703862887.663516045,-0.064664818,2.990547983,0.073268771,0.994864285,0.059322339,0.124010746,0.036845583,2.658957243,0.702337325,0.816448092
1706627033.153202,,,,,,,,,,0.000000000,1703862887.663559437,-0.064279632,2.991255556,0.072928816,0.994894922,0.059359539,0.124029551,0.036633730,2.658950567,0.702347994,0.816432178
1706627033.159458,,,,,,,,,,0.000000000,1703862887.673635483,-0.064781064,2.991409197,0.072829083,0.994881988,0.059537575,0.124420522,0.036892768,2.658967018,0.702331066,0.816437423
1706627033.168214,,,,,,,,,,0.000000000,1703862887.683562279,-0.063802207,2.990981849,0.073086195,0.994901061,0.059211522,0.123705111,0.036392577,2.658950806,0.702345967,0.816438794
1706627033.174030,,,,,,,,,,0.000000000,1703862887.683743715,-0.063298620,2.990311821,0.073444217,0.994897366,0.058981955,0.123228986,0.036144499,2.658922195,0.702354074,0.816442966
1706627033.177886,,,,,,,,,,0.000000000,1703862887.693800688,-0.064213585,2.990285780,0.073419735,0.994870663,0.059170544,0.123680200,0.036616839,2.658972263,0.702328563,0.816450417
1706627033.188569,,,,,,,,,,0.000000000,1703862887.703649759,-0.063023466,2.989463191,0.073876165,0.994871497,0.058948852,0.123171776,0.036030579,2.658949137,0.702346385,0.816475868
1706627033.193975,,,,,,,,,,0.000000000,1703862887.703991652,-0.063947542,2.989698496,0.073707938,0.994832397,0.059509035,0.124361552,0.036527026,2.658970118,0.702310026,0.816454530
1706627033.199445,,,,,,,,,,0.000000000,1703862887.713716507,-0.063024413,2.989910372,0.073643029,0.994870424,0.059251085,0.123763243,0.036039647,2.658957720,0.702344835,0.816453815
1706627033.208142,,,,,,,,,,0.000000000,1703862887.723716736,-0.063364391,2.990648244,0.073269591,0.994900405,0.059127938,0.123515324,0.036177777,2.658943892,0.702340603,0.816443920
1706627033.214298,,,,,,,,,,0.000000000,1703862887.723875284,-0.063796357,2.990383548,0.073388107,0.994885862,0.059088632,0.123479509,0.036399100,2.658941984,0.702358902,0.816451430
1706627033.219942,,,,,,,,,,0.000000000,1703862887.733746052,-0.064016556,2.990301360,0.073425800,0.994886041,0.058973778,0.123268751,0.036503293,2.658951998,0.702369094,0.816469193
1706627033.228612,,,,,,,,,,0.000000000,1703862887.743597269,-0.063974710,2.991182344,0.072977878,0.994901001,0.059291817,0.123872537,0.036478534,2.658922672,0.702381849,0.816447496
1706627033.238554,,,,,,,,,,0.000000000,1703862887.753673315,-0.063655620,2.990212562,0.073464707,0.994860351,0.059445448,0.124192129,0.036360342,2.658950090,0.702334285,0.816450477
1706627033.248914,,,,,,,,,,0.000000000,1703862887.763511658,-0.064347728,2.991193438,0.072949454,0.994878650,0.059574924,0.124470086,0.036685508,2.658980608,0.702347100,0.816447854
1706627033.255083,,,,,,,,,,0.000000000,1703862887.763576031,-0.064347516,2.991228476,0.072932772,0.994881094,0.059555396,0.124429526,0.036682878,2.658943653,0.702353239,0.816430390
1706627033.261692,,,,,,,,,,0.000000000,1703862887.773644924,-0.064818568,2.991883223,0.072591409,0.994897664,0.059562873,0.124456687,0.036898620,2.658977985,0.702361345,0.816414893
1706627033.269967,8412.000000000,1703862887.523683548,0.000000000,0.000000000,0.000000000,0.000000000,3.059293747,0.705576837,0.818772495,,,,,,,,,,,,
1706627033.273833,,,,,,,,,,0.000000000,1703862887.783577204,-0.064612124,2.990932482,0.073079444,0.994879484,0.059324838,0.123997450,0.036807489,2.658959866,0.702355325,0.816434681
1706627033.277217,,,,,,,,,,0.000000000,1703862887.793699026,-0.064851412,2.991462334,0.072796576,0.994876802,0.059638485,0.124626843,0.036933679,2.658957005,0.702321708,0.816405237
1706627033.286956,,,,,,,,,,0.000000000,1703862887.803590536,-0.064821645,2.992050322,0.072498150,0.994887471,0.059836455,0.125000694,0.036914896,2.658989668,0.702342570,0.816415489
1706627033.343248,8413.000000000,1703862887.523831367,0.000000000,0.000000000,0.000000000,0.000000000,3.059293747,0.705576837,0.818772495,,,,,,,,,,,,
1706627033.374457,,,,,,,,,,0.000000000,1703862887.893512726,-0.576454212,0.570551794,0.043748356,0.306394994,0.230915293,2.873343652,0.922435045,2.676386118,0.707815349,0.834195495
1706627033.376883,,,,,,,,,,0.000000000,1703862887.893562555,-0.574825403,0.570547612,0.043617520,0.305566072,0.231203571,2.874165063,0.922644019,2.676439762,0.707791030,0.834172606
1706627033.385364,,,,,,,,,,0.000000000,1703862887.903855562,-0.575405686,0.570824789,0.044005159,0.305963457,0.231101066,2.873041739,0.922519565,2.676408291,0.707809687,0.834188461
1706627033.397255,,,,,,,,,,0.000000000,1703862887.913534641,-0.573795596,0.570093170,0.043857139,0.305095434,0.231093138,2.874134921,0.922816038,2.676456690,0.707769215,0.834160328
1706627033.402359,,,,,,,,,,0.000000000,1703862887.913645506,-0.577070070,0.570512800,0.044116754,0.306785673,0.230683371,2.872354905,0.922345698,2.676344156,0.707807362,0.834213197
1706627033.407830,,,,,,,,,,0.000000000,1703862887.923706293,-0.576736211,0.570843708,0.043836065,0.306572318,0.230963141,2.872963559,0.922360003,2.676375628,0.707813859,0.834224939
1706627033.417727,,,,,,,,,,0.000000000,1703862887.933547020,-0.575637380,0.570541015,0.043896850,0.306032419,0.230985373,2.873294340,0.922530770,2.676402569,0.707792938,0.834221363
1706627033.423553,,,,,,,,,,0.000000000,1703862887.933658123,-0.574578448,0.570081723,0.043788608,0.305460215,0.230992869,2.874029742,0.922723711,2.676440954,0.707796872,0.834193826
1706627033.428299,8414.000000000,1703862887.524046898,0.000000000,0.000000000,0.000000000,0.000000000,3.059293747,0.705576837,0.818772495,,,,,,,,,,,,
1706627033.433070,,,,,,,,,,0.000000000,1703862887.943784475,-0.576525184,0.570873401,0.043727268,0.306443751,0.231043488,2.873259153,0.922387719,2.676379442,0.707816184,0.834224761
1706627033.437286,,,,,,,,,,0.000000000,1703862887.953715801,-0.575315472,0.570879673,0.043867379,0.305888146,0.231182948,2.873351963,0.922530532,2.676415682,0.707806349,0.834192455
1706627033.445103,,,,,,,,,,0.000000000,1703862887.963671446,-0.575007806,0.571069582,0.044137567,0.305816978,0.231217980,2.872804655,0.922532499,2.676420927,0.707780302,0.834183097
1706627033.457387,,,,,,,,,,0.000000000,1703862887.973518133,-0.574814738,0.571441061,0.044283580,0.305781692,0.231351390,2.872428637,0.922503769,2.676432133,0.707804620,0.834194720
1706627033.462734,,,,,,,,,,0.000000000,1703862887.973651409,-0.576241727,0.571238792,0.043938551,0.306380242,0.231166244,2.872773108,0.922368050,2.676399708,0.707817554,0.834221661
1706627033.467943,,,,,,,,,,0.000000000,1703862887.983667135,-0.835099809,0.371696454,-0.027168937,0.406938255,0.147524163,3.035440993,0.901054740,2.674793005,0.708561301,0.838510633
1706627033.477336,,,,,,,,,,0.000000000,1703862887.993610859,-0.575879299,0.570198880,0.043665696,0.306072176,0.230884984,2.873829320,0.922553718,2.676409006,0.707809925,0.834188998
1706627033.488265,,,,,,,,,,0.000000000,1703862888.004483700,-0.576091545,0.570666961,0.043957509,0.306277126,0.230948105,2.872971420,0.922456086,2.676383257,0.707815707,0.834180772
1706627033.493217,,,,,,,,,,0.000000000,1703862888.004647493,-0.575285575,0.571503878,0.044184200,0.305990636,0.231338650,2.872467920,0.922442377,2.676434040,0.707779706,0.834177077
1706627033.498301,,,,,,,,,,0.000000000,1703862888.013698339,-0.577160008,0.569933768,0.043649584,0.306677878,0.230587557,2.873530795,0.922427714,2.676366091,0.707840562,0.834181547
1706627033.507314,,,,,,,,,,0.000000000,1703862888.023698330,-0.574128415,0.571497917,0.044008993,0.305380791,0.231569737,2.873231459,0.922594905,2.676441193,0.707788646,0.834185481
1706627033.512536,,,,,,,,,,0.000000000,1703862888.023766518,-0.835287252,0.373150567,-0.027085345,0.407067418,0.147988245,3.034558995,0.900922894,2.674770117,0.708574414,0.838500619
1706627033.517756,,,,,,,,,,0.000000000,1703862888.033670187,-0.576537585,0.569093125,0.043564923,0.306302160,0.230364949,2.874198290,0.922612131,2.676367283,0.707837880,0.834218860
1706627033.527356,,,,,,,,,,0.000000000,1703862888.043802500,-0.576867689,0.570916573,0.043892108,0.306654960,0.230954424,2.872774462,0.922331989,2.676362038,0.707834542,0.834197402
1706627033.537324,,,,,,,,,,0.000000000,1703862888.053636312,-0.576212694,0.570762400,0.043777686,0.306297034,0.231028602,2.873289693,0.922437847,2.676390409,0.707809687,0.834222317
1706627033.542401,,,,,,,,,,0.000000000,1703862888.053695202,-0.834730831,0.370739529,-0.027539950,0.406688273,0.147386685,3.036774034,0.901178837,2.674806118,0.708560228,0.838483393
1706627033.546703,,,,,,,,,,0.000000000,1703862888.063533545,-0.575576718,0.570634334,0.043852936,0.305997401,0.231047437,2.873378567,0.922528923,2.676425219,0.707812726,0.834210038
1706627033.554579,8415.000000000,1703862887.533619881,0.000000000,0.000000000,0.000000000,0.000000000,3.059293747,0.705576837,0.818772495,,,,,,,,,,,,
1706627033.559763,,,,,,,,,,0.000000000,1703862888.073690891,-0.576206842,0.570793055,0.043611713,0.306254447,0.231097177,2.873641299,0.922442675,2.676397562,0.707796752,0.834139049
1706627033.567267,,,,,,,,,,0.000000000,1703862888.083511829,-0.575120237,0.571621169,0.043905281,0.305846959,0.231504396,2.873088314,0.922461808,2.676447153,0.707797885,0.834209442
1706627033.572448,,,,,,,,,,0.000000000,1703862888.083568573,-0.064931960,2.992394026,0.072331972,0.994911849,0.059613261,0.124547746,0.036943089,2.659001350,0.702322841,0.816440463
1706627033.577653,,,,,,,,,,0.000000000,1703862888.093587399,-0.064809996,2.993185360,0.071939997,0.994938433,0.059693072,0.124669495,0.036863223,2.658985853,0.702353537,0.816410303
1706627033.587309,,,,,,,,,,0.000000000,1703862888.103750229,-0.065908133,2.994119804,0.071414642,0.994916439,0.060336035,0.126010696,0.037429370,2.659007788,0.702316046,0.816386104
1706627033.591951,,,,,,,,,,0.000000000,1703862888.103900671,-0.065591698,2.993315144,0.071832426,0.994903684,0.060141124,0.125625002,0.037282430,2.659021854,0.702323437,0.816408336
1706627033.595417,,,,,,,,,,0.000000000,1703862888.113596916,-0.065333859,2.993619132,0.071705036,0.994943142,0.059742484,0.124792631,0.037115224,2.658960819,0.702355742,0.816393375
1706627033.605781,,,,,,,,,,0.000000000,1703862888.123549938,-0.066272625,2.994251184,0.071339987,0.994920075,0.060256351,0.125873235,0.037601765,2.658999681,0.702340961,0.816376328
1706627033.608399,,,,,,,,,,0.000000000,1703862888.123804808,-0.066061884,2.993725460,0.071630508,0.994939625,0.059666984,0.124692318,0.037470512,2.658981323,0.702351749,0.816393793
1706627033.614609,,,,,,,,,,0.000000000,1703862888.133588552,-0.066717062,2.994505289,0.071188420,0.994905770,0.060525525,0.126438401,0.037835252,2.659012318,0.702349901,0.816370964
1706627033.624810,,,,,,,,,,0.000000000,1703862888.143600464,-0.065951997,2.993854133,0.071563631,0.994935632,0.059844214,0.125035367,0.037424304,2.659011364,0.702327907,0.816403747
1706627033.627629,,,,,,,,,,0.000000000,1703862888.143728256,-0.065817989,2.994899206,0.071031220,0.994947612,0.060317487,0.125937298,0.037358414,2.659005165,0.702336669,0.816375136
1706627033.638459,,,,,,,,,,0.000000000,1703862888.153519392,-0.066161582,2.995689968,0.070624828,0.994967818,0.060367495,0.126033964,0.037508857,2.659042358,0.702330709,0.816373825
1706627033.641342,,,,,,,,,,0.000000000,1703862888.153668404,-0.065873564,2.995159072,0.070903815,0.994962037,0.060222350,0.125740489,0.037371241,2.659039497,0.702342868,0.816396654
1706627033.646856,8416.000000000,1703862887.533789873,0.000000000,0.000000000,0.000000000,0.000000000,3.059293747,0.705576837,0.818772495,,,,,,,,,,,,
1706627033.650190,,,,,,,,,,0.000000000,1703862888.163796663,-0.064961655,2.994211422,0.071265191,0.994706988,0.063987002,0.133275382,0.037215013,2.659169674,0.702081561,0.816464007
1706627033.654997,,,,,,,,,,0.000000000,1703862888.173604250,-0.065543857,2.994834780,0.071090840,0.994979322,0.059828155,0.124935378,0.037188418,2.659000635,0.702367127,0.816397250
1706627033.665114,,,,,,,,,,0.000000000,1703862888.183655500,-0.065480489,2.993928402,0.071533419,0.994931161,0.060091209,0.125493236,0.037203968,2.658991814,0.702355742,0.816394806
1706627033.674639,,,,,,,,,,0.000000000,1703862888.193657875,-0.065351620,2.993491261,0.071762681,0.994929552,0.059883803,0.125082841,0.037138287,2.659012318,0.702337921,0.816430449
1706627033.684694,,,,,,,,,,0.000000000,1703862888.203682184,-0.066181634,2.994150998,0.071388021,0.994910121,0.060384147,0.126127013,0.037568592,2.659035683,0.702354670,0.816393077
1706627033.698341,,,,,,,,,,0.000000000,1703862888.213567257,-0.065582160,2.992646406,0.072176598,0.994897664,0.059829921,0.125023747,0.037276093,2.659008503,0.702339649,0.816427231
1706627033.705270,,,,,,,,,,0.000000000,1703862888.223559141,-0.065358549,2.992724462,0.072147988,0.994908392,0.059759930,0.124862995,0.037156757,2.659004688,0.702352643,0.816436291
1706627033.708386,,,,,,,,,,0.000000000,1703862888.223655224,-0.066796050,2.993766457,0.071555600,0.994881809,0.060449820,0.126320337,0.037892662,2.659053326,0.702314973,0.816396892
1706627033.718880,8417.000000000,1703862887.543503284,0.000000000,0.000000000,0.000000000,0.000000000,3.059293747,0.705576837,0.818772495,,,,,,,,,,,,
1706627033.723567,,,,,,,,,,0.000000000,1703862888.233626604,-0.065593723,2.993746255,0.071610428,0.994906962,0.060348369,0.126025624,0.037284814,2.659016132,0.702324033,0.816374719
1706627033.728793,,,,,,,,,,0.000000000,1703862888.243752718,-0.065783822,2.992937432,0.072009005,0.994879246,0.060261641,0.125896133,0.037399091,2.659021378,0.702309668,0.816391230
1706627033.735675,,,,,,,,,,0.000000000,1703862888.253597260,-0.066042262,2.992901881,0.072012916,0.994865656,0.060392935,0.126181205,0.037538942,2.659056425,0.702301681,0.816392124
1706627033.738347,,,,,,,,,,0.000000000,1703862888.253844261,-0.007676796,3.049394450,0.045584887,0.995276868,0.085357122,0.171459839,0.007766036,2.659048319,0.704285979,0.814091742
1706627033.745945,,,,,,,,,,0.000000000,1703862888.263669014,-0.065654570,2.992532211,0.072227649,0.994887054,0.059916001,0.125206625,0.037322123,2.659001827,0.702329099,0.816404998
1706627033.755025,,,,,,,,,,0.000000000,1703862888.273568153,-0.065944743,2.992836463,0.072060585,0.994883835,0.060078301,0.125543698,0.037469454,2.659035921,0.702333450,0.816413701
1706627033.757900,,,,,,,,,,0.000000000,1703862888.273716927,-0.065779057,2.992604441,0.072187290,0.994887292,0.059923172,0.125227875,0.037382632,2.659029007,0.702340305,0.816411078
1706627033.764530,,,,,,,,,,0.000000000,1703862888.283577204,-0.065001668,2.991480370,0.072784930,0.994878948,0.059574801,0.124509743,0.037003603,2.658993483,0.702319562,0.816422522
1706627033.774814,,,,,,,,,,0.000000000,1703862888.293767929,-0.065542115,2.992265187,0.072355151,0.994864583,0.060154799,0.125688053,0.037291620,2.659022093,0.702307940,0.816400707
1706627033.777539,,,,,,,,,,0.000000000,1703862888.293886423,-0.065704942,2.992944513,0.072010167,0.994883955,0.060208291,0.125782591,0.037355561,2.659020185,0.702311218,0.816380739
1706627033.782034,8418.000000000,1703862887.543626785,0.000000000,0.000000000,0.000000000,0.000000000,3.059293747,0.705576837,0.818772495,,,,,,,,,,,,
1706627033.784970,,,,,,,,,,0.000000000,1703862888.303593636,-0.064944622,2.991773821,0.072627090,0.994868159,0.059950858,0.125250432,0.036993388,2.658986092,0.702346444,0.816414654
1706627033.789344,,,,,,,,,,0.000000000,1703862888.303764105,-0.065526050,2.991851490,0.072563678,0.994853377,0.060088441,0.125568924,0.037291750,2.658998966,0.702321470,0.816405714
1706627033.796155,,,,,,,,,,0.000000000,1703862888.313563824,-0.064406412,2.991802568,0.072644167,0.994899392,0.059594415,0.124491332,0.036697317,2.658986092,0.702341080,0.816420376
1706627033.807330,,,,,,,,,,0.000000000,1703862888.323849916,-0.065466834,2.991792395,0.072608367,0.994873583,0.059732616,0.124851246,0.037238028,2.659013987,0.702335894,0.816426277
1706627033.810153,,,,,,,,,,0.000000000,1703862888.323926687,-0.065082848,2.991786384,0.072620273,0.994873106,0.059840996,0.125039748,0.037054103,2.659008503,0.702335954,0.816428065
1706627033.814899,,,,,,,,,,0.000000000,1703862888.333550215,-0.063890265,2.991885927,0.072460711,0.994641662,0.063926965,0.133159122,0.036752529,2.659133673,0.702073336,0.816462040
1706627033.824899,,,,,,,,,,0.000000000,1703862888.343652248,-0.064989167,2.990351878,0.073345721,0.994836330,0.059580069,0.124561357,0.037032887,2.658976555,0.702314556,0.816433966
1706627033.827305,,,,,,,,,,0.000000000,1703862888.343780518,-0.064345440,2.990785863,0.073152229,0.994863689,0.059568550,0.124472132,0.036696583,2.658960581,0.702350020,0.816417754
1706627033.835642,,,,,,,,,,0.000000000,1703862888.353801250,-0.063987070,2.990844237,0.073139593,0.994878650,0.059451021,0.124205931,0.036506899,2.658973217,0.702349663,0.816433787
1706627033.838702,,,,,,,,,,0.000000000,1703862888.353963137,-0.063164522,2.990727604,0.073248371,0.994925380,0.058809444,0.122856705,0.036051914,2.658931255,0.702393234,0.816461742
1706627033.850740,8419.000000000,1703862887.553536892,0.000000000,0.000000000,0.000000000,0.000000000,3.059293747,0.705576837,0.818772495,,,,,,,,,,,,
1706627033.856307,,,,,,,,,,0.000000000,1703862888.363649130,-0.064559956,2.991495535,0.072800323,0.994899631,0.059356410,0.124036060,0.036766250,2.658971786,0.702363491,0.816444695
1706627033.860030,,,,,,,,,,0.000000000,1703862888.373879910,-0.063069606,2.989397637,0.073912777,0.994877338,0.058794677,0.122867827,0.036044221,2.658923388,0.702373564,0.816475689
1706627033.864809,,,,,,,,,,0.000000000,1703862888.383664846,-0.063864629,2.990537529,0.073314637,0.994899213,0.058943868,0.123188156,0.036417823,2.658949137,0.702365816,0.816435218
1706627033.874874,,,,,,,,,,0.000000000,1703862888.393831968,-0.065175951,2.991125780,0.072945848,0.994847715,0.059825536,0.125040491,0.037120190,2.658997059,0.702329874,0.816396177
1706627033.885057,,,,,,,,,,0.000000000,1703862888.403514624,-0.064981884,2.991211817,0.072920412,0.994871438,0.059536789,0.124441787,0.036999285,2.658946276,0.702340662,0.816399813
1706627033.887506,,,,,,,,,,0.000000000,1703862888.403674841,-0.065696316,2.990903411,0.073036954,0.994828105,0.059872296,0.125183133,0.037390810,2.658965349,0.702335119,0.816423059
1706627033.896005,,,,,,,,,,0.000000000,1703862888.413516283,-0.065293939,2.991335158,0.072843574,0.994862854,0.059672482,0.124734111,0.037161440,2.658973217,0.702320397,0.816394567
1706627033.904954,,,,,,,,,,0.000000000,1703862888.423704147,-0.012198037,3.045766536,0.047337163,0.996309400,0.070970133,0.142810718,0.009493429,2.658550978,0.703572690,0.814332485
1706627033.907759,,,,,,,,,,0.000000000,1703862888.423850775,-0.065209723,2.992038809,0.072498851,0.994893789,0.059619650,0.124595143,0.037093528,2.658986330,0.702343822,0.816392124
1706627033.915334,8420.000000000,1703862887.553672791,0.000000000,0.000000000,0.000000000,0.000000000,3.059293747,0.705576837,0.818772495,,,,,,,,,,,,
1706627033.920677,,,,,,,,,,0.000000000,1703862888.433530569,-0.065444277,2.991402116,0.072804809,0.994862258,0.059684176,0.124766730,0.037235390,2.658968210,0.702361047,0.816393793
1706627033.925074,,,,,,,,,,0.000000000,1703862888.443707228,-0.064349761,2.990916461,0.073090076,0.994873226,0.059490867,0.124311477,0.036688972,2.658954144,0.702333987,0.816400647
1706627033.934925,,,,,,,,,,0.000000000,1703862888.453760862,-0.065621557,2.991282606,0.072859660,0.994857192,0.059644949,0.124706059,0.037324902,2.658962727,0.702314079,0.816387653
1706627033.945017,,,,,,,,,,0.000000000,1703862888.463647366,-0.013224152,3.046394202,0.046983145,0.996289730,0.071409389,0.143735866,0.010004039,2.658565760,0.703551471,0.814294994
1706627033.957826,,,,,,,,,,0.000000000,1703862888.473917484,-0.065823708,2.992260487,0.072359502,0.994878411,0.059847049,0.125091194,0.037410200,2.658974171,0.702346802,0.816367149
1706627033.965415,,,,,,,,,,0.000000000,1703862888.483924866,-0.065213481,2.991465405,0.072777644,0.994862735,0.059778258,0.124935671,0.037124880,2.658945322,0.702347219,0.816379070
1706627033.967879,,,,,,,,,,0.000000000,1703862888.484122753,-0.065426036,2.991839145,0.072577022,0.994860709,0.059986431,0.125356604,0.037234683,2.658980846,0.702351451,0.816401601
1706627033.975066,,,,,,,,,,0.000000000,1703862888.493556023,-0.064958842,2.991444415,0.072798789,0.994869411,0.059720986,0.124801661,0.036993999,2.658930540,0.702341557,0.816386700
1706627033.977595,,,,,,,,,,0.000000000,1703862888.493695974,-0.066087232,2.991855932,0.072549976,0.994856477,0.059888519,0.125210087,0.037557662,2.658956051,0.702332258,0.816371739
1706627033.982285,8421.000000000,1703862887.553822517,0.000000000,0.000000000,0.000000000,0.000000000,3.059293747,0.705576837,0.818772495,,,,,,,,,,,,
1706627033.985470,,,,,,,,,,0.000000000,1703862888.503690243,-0.065291265,2.990895255,0.073067538,0.994854927,0.059528939,0.124461771,0.037163284,2.658959389,0.702337205,0.816414416
1706627033.995424,,,,,,,,,,0.000000000,1703862888.513470888,-0.065187692,2.991038102,0.073001705,0.994864643,0.059485100,0.124360279,0.037103824,2.658973932,0.702318788,0.816404283
1706627033.998317,,,,,,,,,,0.000000000,1703862888.513519049,-0.064104785,2.990735007,0.073188640,0.994870603,0.059485435,0.124288252,0.036571696,2.658944607,0.702364683,0.816411316
1706627034.004962,,,,,,,,,,0.000000000,1703862888.523673534,-0.064615921,2.991765122,0.072652861,0.994889915,0.059671625,0.124664081,0.036808893,2.658963203,0.702338099,0.816376865
1706627034.007426,,,,,,,,,,0.000000000,1703862888.523730040,-0.065320065,2.990582843,0.073218897,0.994838119,0.059605360,0.124629313,0.037193038,2.658984184,0.702318192,0.816393852
1706627034.015755,,,,,,,,,,0.000000000,1703862888.533591032,-0.064981296,2.991088935,0.072982050,0.994867742,0.059521221,0.124415018,0.037001673,2.658969164,0.702341974,0.816387177
1706627034.020962,,,,,,,,,,0.000000000,1703862888.533650637,-0.065719327,2.990986391,0.072999671,0.994838357,0.059746828,0.124929564,0.037390511,2.658982515,0.702320874,0.816389501
1706627034.025705,,,,,,,,,,0.000000000,1703862888.543613672,-0.065388098,2.991423078,0.072805136,0.994878054,0.059447441,0.124285705,0.037189316,2.658943176,0.702378571,0.816398621
1706627034.036224,,,,,,,,,,0.000000000,1703862888.553569555,-0.065860330,2.991897988,0.072540946,0.994868457,0.059777491,0.124967813,0.037434783,2.658952475,0.702370882,0.816386402
1706627034.039969,,,,,,,,,,0.000000000,1703862888.553619146,-0.012063655,3.044485275,0.047983468,0.996303260,0.070626028,0.142125601,0.009455518,2.658524513,0.703614295,0.814344049
1706627034.044599,,,,,,,,,,0.000000000,1703862888.563613892,-0.012402981,3.044411444,0.048003674,0.996268034,0.071081638,0.143057568,0.009649524,2.658539295,0.703575134,0.814321041
1706627034.046973,,,,,,,,,,0.000000000,1703862888.563788176,-0.064382920,2.990514236,0.073297486,0.994871616,0.059254631,0.123853981,0.036700659,2.658922672,0.702379644,0.816391170
1706627034.054737,,,,,,,,,,0.000000000,1703862888.573586702,-0.064604145,2.990804465,0.073144771,0.994877160,0.059285231,0.123921945,0.036804557,2.658929825,0.702356398,0.816380739
1706627034.057176,,,,,,,,,,0.000000000,1703862888.573960543,-0.064384847,2.991643689,0.072727256,0.994899333,0.059501123,0.124307992,0.036684658,2.658930779,0.702360034,0.816363096
1706627034.061316,8422.000000000,1703862888.453535557,0.000000000,0.000000000,0.000000000,0.000000000,3.059293747,0.705576837,0.818772495,,,,,,,,,,,,
1706627034.065509,,,,,,,,,,0.000000000,1703862888.583811760,-0.064291638,2.991735443,0.072680205,0.994896710,0.059625816,0.124548100,0.036644299,2.658927917,0.702348292,0.816365421
1706627034.075057,,,,,,,,,,0.000000000,1703862888.593721628,-0.065041104,2.991281032,0.072878368,0.994863868,0.059688892,0.124749580,0.037037887,2.658911228,0.702341020,0.816372156
1706627034.085075,,,,,,,,,,0.000000000,1703862888.603810787,-0.064399755,2.990760398,0.073172845,0.994877696,0.059303161,0.123943770,0.036705021,2.658920765,0.702351630,0.816369534
1706627034.094735,,,,,,,,,,0.000000000,1703862888.613609076,-0.013309359,3.046696268,0.046830095,0.996300220,0.071360230,0.143638229,0.010033412,2.658539534,0.703576386,0.814253747
1706627034.104753,,,,,,,,,,0.000000000,1703862888.623778820,-0.064902670,2.991952063,0.072544582,0.994883060,0.059826840,0.124991250,0.036957785,2.658943892,0.702374339,0.816347897
1706627034.107280,,,,,,,,,,0.000000000,1703862888.623927593,-0.065137571,2.990822967,0.073101997,0.994844139,0.059706725,0.124809953,0.037101738,2.658928633,0.702343225,0.816354334
1706627034.116217,,,,,,,,,,0.000000000,1703862888.633560658,-0.013746845,3.045941587,0.047190160,0.996280849,0.071358189,0.143662897,0.010278840,2.658555746,0.703553379,0.814279854
1706627034.126479,,,,,,,,,,0.000000000,1703862888.643690825,-0.065568246,2.991492133,0.072761215,0.994872093,0.059542678,0.124488480,0.037284229,2.658949137,0.702350497,0.816362381
1706627034.135505,,,,,,,,,,0.000000000,1703862888.653642178,-0.012735132,3.044307988,0.048044886,0.996276557,0.070912376,0.142735094,0.009810902,2.658523798,0.703581393,0.814304411
1706627034.138296,,,,,,,,,,0.000000000,1703862888.653752565,-0.012313245,3.044792637,0.047818854,0.996290982,0.070893206,0.142671224,0.009582039,2.658526897,0.703586519,0.814298511
1706627034.144734,,,,,,,,,,0.000000000,1703862888.663658619,-0.011982968,3.044747900,0.047857650,0.996325672,0.070402652,0.141670765,0.009395167,2.658500195,0.703599513,0.814307809
1706627034.147242,,,,,,,,,,0.000000000,1703862888.663812399,-0.013196066,3.045807652,0.047280055,0.996302426,0.071037553,0.142993952,0.009993454,2.658534050,0.703609467,0.814301372
1706627034.153441,8423.000000000,1703862888.453624249,0.000000000,0.000000000,0.000000000,0.000000000,3.059293747,0.705576837,0.818772495,,,,,,,,,,,,
1706627034.155974,,,,,,,,,,0.000000000,1703862888.673732996,-0.012485351,3.046472584,0.046977863,0.996345580,0.070686199,0.142247845,0.009598277,2.658509970,0.703597188,0.814292490
1706627034.166120,,,,,,,,,,0.000000000,1703862888.683567286,-0.063927246,2.990722852,0.073208101,0.994885087,0.059281792,0.123865551,0.036468297,2.658919096,0.702357888,0.816368103
1706627034.175342,,,,,,,,,,0.000000000,1703862888.693641424,-0.012013365,3.043564300,0.048444066,0.996281326,0.070619904,0.142119575,0.009462843,2.658511639,0.703587353,0.814342201
1706627034.184848,,,,,,,,,,0.000000000,1703862888.703644753,-0.063124448,2.989880190,0.073686071,0.994918942,0.058385033,0.122031137,0.036026485,2.658890724,0.702399373,0.816438794
1706627034.194998,,,,,,,,,,0.000000000,1703862888.713671923,-0.011973636,3.041666377,0.049390540,0.996232390,0.070649177,0.142194420,0.009511914,2.658512592,0.703609288,0.814384282
1706627034.205827,8424.000000000,1703862888.453760862,0.000000000,0.000000000,0.000000000,0.000000000,3.059293747,0.705576837,0.818772495,,,,,,,,,,,,
1706627034.209526,,,,,,,,,,0.000000000,1703862888.723871231,-0.063095689,2.990024633,0.073607743,0.994912684,0.058592714,0.122441148,0.036023058,2.658875942,0.702392638,0.816425562
1706627034.216057,,,,,,,,,,0.000000000,1703862888.733675718,-0.063306896,2.989802072,0.073708259,0.994895935,0.058676966,0.122635045,0.036141757,2.658876181,0.702382684,0.816424906
1706627034.225860,,,,,,,,,,0.000000000,1703862888.743809462,-0.064131080,2.990581294,0.073289804,0.994905889,0.058786366,0.122890624,0.036538135,2.658886671,0.702380061,0.816408098
1706627034.237665,,,,,,,,,,0.000000000,1703862888.753777504,-0.012330847,3.045727069,0.047353715,0.996320486,0.070795648,0.142467258,0.009552855,2.658495426,0.703611493,0.814296722
1706627034.244940,,,,,,,,,,0.000000000,1703862888.763659477,-0.012260075,3.046312007,0.047068164,0.996359050,0.070451468,0.141767375,0.009480423,2.658490658,0.703588545,0.814261615
1706627034.257326,,,,,,,,,,0.000000000,1703862888.773618221,-0.065011283,2.991377029,0.072838165,0.994878471,0.059514992,0.124394097,0.037007250,2.658919811,0.702367365,0.816338480
1706627034.259831,,,,,,,,,,0.000000000,1703862888.773927927,-0.012777529,3.047100765,0.046651315,0.996336579,0.071008496,0.142902714,0.009736900,2.658507347,0.703563213,0.814218044
1706627034.266313,8425.000000000,1703862888.463518620,0.000000000,0.000000000,0.000000000,0.000000000,3.059293747,0.705576837,0.818772495,,,,,,,,,,,,
1706627034.270593,,,,,,,,,,0.000000000,1703862888.783686161,-0.576189215,0.570124666,-0.043898381,-0.306277335,-0.230730355,2.873247489,-0.922513247,2.676331758,0.707843125,0.834130228
1706627034.275640,,,,,,,,,,0.000000000,1703862888.793766975,-0.012263619,3.046661844,-0.046893883,-0.996368229,-0.070439667,0.141740526,-0.009469236,2.658498526,0.703617930,0.814272106
1706627034.287449,,,,,,,,,,0.000000000,1703862888.803833723,-0.012235004,3.045783268,-0.047330085,-0.996328950,-0.070698753,0.142267586,-0.009498397,2.658508301,0.703625798,0.814281881
1706627034.294726,,,,,,,,,,0.000000000,1703862888.813626051,-0.012775313,3.046406217,-0.046997596,-0.996321857,-0.070984937,0.142862099,-0.009759502,2.658501863,0.703611016,0.814262033
1706627034.306895,,,,,,,,,,0.000000000,1703862888.823653460,-0.012449474,3.045363942,-0.047532476,-0.996327162,-0.070573553,0.142030673,-0.009614426,2.658518553,0.703587711,0.814289629
1706627034.316789,,,,,,,,,,0.000000000,1703862888.833618641,-0.005695026,3.044221795,-0.048247017,-0.995194614,-0.084919170,0.170523511,-0.006978127,2.658991814,0.704404354,0.814183891
1706627034.326501,,,,,,,,,,0.000000000,1703862888.843575716,-0.063889124,2.990229823,-0.073457971,-0.994873106,-0.059181731,0.123679499,-0.036457121,2.658918858,0.702383161,0.816397369
1706627034.329621,,,,,,,,,,0.000000000,1703862888.843701839,-0.063399948,2.990132437,-0.073530532,-0.994889855,-0.058966078,0.123211480,-0.036199532,2.658912897,0.702387869,0.816407442
1706627034.335073,,,,,,,,,,0.000000000,1703862888.853464603,-0.062870491,2.990243193,-0.073494121,-0.994903982,-0.058938459,0.123110761,-0.035929266,2.658899069,0.702391684,0.816398621
1706627034.337727,,,,,,,,,,0.000000000,1703862888.853561401,-0.062739732,2.990713734,-0.073275656,-0.994941771,-0.058634244,0.122472107,-0.035826974,2.658870220,0.702427149,0.816408634
1706627034.342636,8426.000000000,1703862888.463647366,0.000000000,0.000000000,0.000000000,0.000000000,3.059293747,0.705576837,0.818772495,,,,,,,,,,,,
1706627034.345288,,,,,,,,,,0.000000000,1703862888.863539934,-0.011828009,3.044807490,-0.047832880,-0.996322870,-0.070469059,0.141795939,-0.009318871,2.658485413,0.703612387,0.814332187
1706627034.354760,,,,,,,,,,0.000000000,1703862888.873618841,-0.011127654,3.043315811,-0.048604738,-0.996318161,-0.070048660,0.140931275,-0.009001552,2.658463717,0.703617394,0.814362288
1706627034.357186,,,,,,,,,,0.000000000,1703862888.873814583,-0.062576667,2.991222468,-0.073029146,-0.994964838,-0.058610376,0.122393222,-0.035728078,2.658866405,0.702421963,0.816379309
1706627034.365731,,,,,,,,,,0.000000000,1703862888.883671761,-0.062970501,2.990424643,-0.073414616,-0.994932175,-0.058552299,0.122335701,-0.035945211,2.658841610,0.702387393,0.816385865
1706627034.375187,,,,,,,,,,0.000000000,1703862888.893671751,-0.063859961,2.989835066,-0.073671527,-0.994885266,-0.058731738,0.122787071,-0.036421429,2.658878326,0.702385604,0.816401482
1706627034.384968,,,,,,,,,,0.000000000,1703862888.903736353,-0.011292855,3.044002966,-0.048256114,-0.996330917,-0.070100032,0.141036333,-0.009062313,2.658465862,0.703609765,0.814318717
1706627034.387770,,,,,,,,,,0.000000000,1703862888.903888702,-0.011456668,3.043999007,-0.048252009,-0.996328413,-0.070127696,0.141099965,-0.009145590,2.658482313,0.703635097,0.814328790
1706627034.398813,,,,,,,,,,0.000000000,1703862888.913682222,-0.064020454,2.989998691,-0.073585540,-0.994889915,-0.058714617,0.122759166,-0.036495410,2.658879042,0.702407598,0.816425979
1706627034.409119,,,,,,,,,,0.000000000,1703862888.923634768,-0.063335614,2.990536126,-0.073336683,-0.994913578,-0.058840673,0.122939705,-0.036145672,2.658881664,0.702389956,0.816391110
1706627034.415464,,,,,,,,,,0.000000000,1703862888.923685551,-0.063322372,2.990889505,-0.073162369,-0.994928479,-0.058818601,0.122881466,-0.036126561,2.658901453,0.702397525,0.816412568
1706627034.427034,8427.000000000,1703862888.473588467,0.000000000,0.000000000,0.000000000,0.000000000,3.059293747,0.705576837,0.818772495,,,,,,,,,,,,
1706627034.434461,,,,,,,,,,0.000000000,1703862888.943766832,-0.010910946,3.045182237,-0.047687117,-0.996399164,-0.069550388,0.139903773,-0.008803723,2.658450127,0.703619063,0.814326227
1706627034.442018,,,,,,,,,,0.000000000,1703862888.953727722,-0.063637701,2.990279213,-0.073445819,-0.994885385,-0.059072517,0.123438592,-0.036321782,2.658894777,0.702386081,0.816394687
1706627034.444988,,,,,,,,,,0.000000000,1703862888.963819504,-0.011899811,3.044370703,-0.048049822,-0.996326685,-0.070263289,0.141390475,-0.009360288,2.658487082,0.703600168,0.814342797
1706627034.447575,,,,,,,,,,0.000000000,1703862888.963916540,-0.063202300,2.990497939,-0.073364697,-0.994921744,-0.058713339,0.122674776,-0.036070779,2.658875227,0.702381372,0.816396058
1706627034.454908,,,,,,,,,,0.000000000,1703862888.973687410,-0.063147693,2.990570380,-0.073328890,-0.994922757,-0.058758453,0.122758590,-0.036044572,2.658878088,0.702402472,0.816424429
1706627034.457783,,,,,,,,,,0.000000000,1703862888.973848343,-0.063403072,2.989444608,-0.073877424,-0.994872391,-0.058820724,0.122944545,-0.036211506,2.658907175,0.702374041,0.816440403
1706627034.465831,,,,,,,,,,0.000000000,1703862888.983600140,-0.063446654,2.989498237,-0.073849291,-0.994873643,-0.058821853,0.122948271,-0.036231738,2.658914566,0.702381492,0.816457629
1706627034.468700,,,,,,,,,,0.000000000,1703862888.983704567,-0.063471145,2.989251983,-0.073977001,-0.994873941,-0.058651932,0.122617559,-0.036238927,2.658903599,0.702389300,0.816458583
1706627034.474554,,,,,,,,,,0.000000000,1703862888.993519306,-0.062323738,2.988515094,-0.074399181,-0.994893372,-0.058147367,0.121539889,-0.035649870,2.658864975,0.702399552,0.816468656
1706627034.477582,,,,,,,,,,0.000000000,1703862888.993572712,-0.063096853,2.989234842,-0.074009404,-0.994897783,-0.058334928,0.121951631,-0.036028657,2.658910036,0.702407658,0.816486776
1706627034.485010,,,,,,,,,,0.000000000,1703862889.003706455,-0.063372306,2.989242802,-0.074000143,-0.994899929,-0.058231164,0.121764291,-0.036158480,2.658878088,0.702404797,0.816458344
1706627034.487519,,,,,,,,,,0.000000000,1703862889.004127741,-0.062557323,2.988347116,-0.074465863,-0.994868517,-0.058400210,0.122072573,-0.035790749,2.658876896,0.702381372,0.816481769
1706627034.494539,,,,,,,,,,0.000000000,1703862889.013593912,-0.062598148,2.989147767,-0.074071221,-0.994905770,-0.058276102,0.121797483,-0.035777483,2.658885241,0.702399611,0.816475749
1706627034.505684,,,,,,,,,,0.000000000,1703862889.023666382,-0.061723144,2.988481123,-0.074437633,-0.994904339,-0.058095101,0.121388848,-0.035346556,2.658867121,0.702400327,0.816480398
1706627034.508362,,,,,,,,,,0.000000000,1703862889.023789883,-0.061947512,2.988896962,-0.074232109,-0.994930625,-0.057858452,0.120915940,-0.035428509,2.658853769,0.702414334,0.816486418
1706627034.513625,8428.000000000,1703862888.473733664,0.000000000,0.000000000,0.000000000,0.000000000,3.059293747,0.705576837,0.818772495,,,,,,,,,,,,
1706627034.517358,,,,,,,,,,0.000000000,1703862889.033711910,-0.211305529,-0.071764481,-0.990769267,0.043388613,0.102453999,-0.148392581,0.077440232,2.654890537,0.701822758,0.849766612
1706627034.525154,,,,,,,,,,0.000000000,1703862889.043689251,-0.061978512,2.989619228,0.073855981,0.994930923,0.058314905,0.121810198,0.035456054,2.658885241,0.702403486,0.816468418
1706627034.534600,,,,,,,,,,0.000000000,1703862889.053533792,-0.062257304,2.989226864,0.074040346,0.994909406,0.058353990,0.121924561,0.035610374,2.658911228,0.702407598,0.816513181
1706627034.537037,,,,,,,,,,0.000000000,1703862889.053645134,-0.204335370,-0.073338749,0.990976751,-0.044086318,-0.098865785,-0.151656700,-0.079038337,2.654995441,0.701891661,0.850123584
1706627034.558092,,,,,,,,,,0.000000000,1703862889.073623657,-0.210979036,-0.071837273,0.990768611,-0.043435190,-0.102280036,-0.148821353,-0.077651829,2.654942274,0.701802015,0.849840343
1706627034.562298,,,,,,,,,,0.000000000,1703862889.073759794,-0.211490554,-0.072366091,0.990740895,-0.043700129,-0.102519415,-0.148529652,-0.077541545,2.654963255,0.701791644,0.849825382
1706627034.566696,,,,,,,,,,0.000000000,1703862889.083592415,-0.219356006,-0.070873073,0.990460515,-0.043070555,-0.106541917,-0.145432302,-0.076037973,2.654879808,0.701692224,0.849567413
1706627034.577110,,,,,,,,,,0.000000000,1703862889.093640804,-0.222118443,-0.070322437,0.990348041,-0.042848308,-0.107949011,-0.144618952,-0.075642981,2.654828072,0.701647520,0.849489629
1706627034.581481,,,,,,,,,,0.000000000,1703862889.093701363,-0.210877134,-0.071989792,0.990766823,-0.043512393,-0.102221385,-0.148923454,-0.077708788,2.654982805,0.701767921,0.849861979
1706627034.585904,8429.000000000,1703862888.473917484,0.000000000,0.000000000,0.000000000,0.000000000,3.059293747,0.705576837,0.818772495,,,,,,,,,,,,
1706627034.588344,,,,,,,,,,0.000000000,1703862889.103677511,-0.220218648,-0.072244583,0.990425467,-0.043718647,-0.106941953,-0.144300035,-0.075562328,2.654877186,0.701690197,0.849553466
1706627034.594606,,,,,,,,,,0.000000000,1703862889.113495350,-0.233726092,-0.069841404,0.989882290,-0.042703476,-0.113829456,-0.139345544,-0.073160388,2.654634476,0.701546848,0.849118471
1706627034.597821,,,,,,,,,,0.000000000,1703862889.113558531,-0.215067757,-0.071984141,0.990643799,-0.043515157,-0.104357563,-0.146214027,-0.076424733,2.654917240,0.701742232,0.849694312
1706627034.607194,,,,,,,,,,0.000000000,1703862889.123654604,-0.217611576,-0.072239207,0.990528286,-0.043687008,-0.105625771,-0.145421674,-0.076081142,2.654891491,0.701717377,0.849611163
1706627034.611777,,,,,,,,,,0.000000000,1703862889.124076366,-0.223018274,-0.070304851,0.990327179,-0.042827468,-0.108412355,-0.143831831,-0.075264350,2.654814720,0.701676965,0.849421978
1706627034.616241,,,,,,,,,,0.000000000,1703862889.133509636,-0.216296371,-0.073557640,0.990569293,-0.044298958,-0.104922228,-0.145494704,-0.076168127,2.654904366,0.701731086,0.849659383
1706627034.619465,,,,,,,,,,0.000000000,1703862889.133605719,-0.210630613,-0.073167061,0.990761161,-0.044077903,-0.102057338,-0.148746276,-0.077677667,2.654981613,0.701800883,0.849874794
1706627034.625702,,,,,,,,,,0.000000000,1703862889.143789053,-0.208917552,-0.073838531,0.990819335,-0.044374820,-0.101171486,-0.149225402,-0.077924594,2.654994488,0.701806545,0.849952936
1706627034.628248,,,,,,,,,,0.000000000,1703862889.143957853,-0.223757052,-0.072200089,0.990300119,-0.043709695,-0.108739622,-0.142340256,-0.074638776,2.654798985,0.701652050,0.849434614
1706627034.636741,,,,,,,,,,0.000000000,1703862889.153657198,-0.062374995,2.989319863,0.073980048,0.994894385,0.058638964,0.122503298,0.035687599,2.658907652,0.702373803,0.816497266
1706627034.640296,,,,,,,,,,0.000000000,1703862889.153760910,-0.062224275,2.989716692,0.073786400,0.994909406,0.058680542,0.122560886,0.035603136,2.658938885,0.702390015,0.816506088
1706627034.644487,,,,,,,,,,0.000000000,1703862889.163613796,-0.062079301,2.988887805,0.074209727,0.994891107,0.058491990,0.122200163,0.035541970,2.658932924,0.702376068,0.816501200
1706627034.656479,,,,,,,,,,0.000000000,1703862889.173591614,-0.062194594,2.989459703,0.073921263,0.994910240,0.058506891,0.122218696,0.035583265,2.658915997,0.702381611,0.816494167
1706627034.659965,,,,,,,,,,0.000000000,1703862889.173842430,-0.573985862,0.570197681,-0.044057705,-0.305244923,-0.231040999,2.873603068,-0.922770023,2.676460505,0.707784176,0.834202170
1706627034.665855,8430.000000000,1703862888.483924866,0.000000000,0.000000000,0.000000000,0.000000000,3.059293747,0.705576837,0.818772495,,,,,,,,,,,,
1706627034.669087,,,,,,,,,,0.000000000,1703862889.183759928,-0.574319921,0.570613861,-0.043980606,-0.305413961,-0.231186986,2.873522508,-0.922681212,2.676458359,0.707797289,0.834201753
1706627034.674592,,,,,,,,,,0.000000000,1703862889.193566799,-0.216612451,-0.071946402,0.990571737,-0.043533072,-0.105131358,-0.145900856,-0.076289132,2.654911995,0.701710522,0.849659622
1706627034.677198,,,,,,,,,,0.000000000,1703862889.193734407,-0.575246713,0.570724755,-0.044169109,-0.305920810,-0.231029734,2.872771865,-0.922543764,2.676406622,0.707803905,0.834219635
1706627034.685245,,,,,,,,,,0.000000000,1703862889.203653097,-0.208081449,-0.073674982,-0.990874708,0.044255126,0.100767486,-0.149040855,0.077812865,2.654978275,0.701837361,0.849968433
1706627034.697319,,,,,,,,,,0.000000000,1703862889.213640928,-0.209094238,-0.071278334,-0.990836143,0.043151431,0.101342246,-0.149990520,0.078176521,2.654967785,0.701827407,0.849883020
1706627034.703752,,,,,,,,,,0.000000000,1703862889.213789701,-0.214056323,-0.071582184,-0.990658104,0.043348644,0.103843547,-0.147511079,0.077032253,2.654936314,0.701767981,0.849744260
1706627034.710959,8431.000000000,1703862888.484122753,0.000000000,0.000000000,0.000000000,0.000000000,3.059293747,0.705576837,0.818772495,,,,,,,,,,,,
1706627034.717600,,,,,,,,,,0.000000000,1703862889.223810196,-0.224620965,-0.069916548,-0.990272105,0.042648762,0.109236799,-0.143090335,0.074897498,2.654757023,0.701655209,0.849390447
1706627034.722850,,,,,,,,,,0.000000000,1703862889.233616114,-0.221350052,-0.070211643,-0.990367353,0.042804755,0.107557610,-0.145314227,0.075970992,2.654808521,0.701686680,0.849484384
1706627034.731670,,,,,,,,,,0.000000000,1703862889.243705750,-0.207780892,-0.070755356,-0.990889013,0.042882051,0.100696221,-0.150709661,0.078488395,2.654951811,0.701841950,0.849932432
1706627034.736184,,,,,,,,,,0.000000000,1703862889.253830910,-0.207669513,-0.071371981,-0.990882993,0.043181807,0.100617565,-0.150674234,0.078500345,2.654947996,0.701843679,0.849934340
1706627034.745288,,,,,,,,,,0.000000000,1703862889.263653994,-0.211846998,-0.069456731,-0.990761697,0.042301111,0.102796540,-0.149108459,0.077683799,2.654898405,0.701795340,0.849769592
1706627034.755811,,,,,,,,,,0.000000000,1703862889.273550034,-0.208015381,-0.070979773,-0.990870416,0.043003339,0.100802906,-0.150744540,0.078520186,2.654961824,0.701843321,0.849918246
1706627034.759240,,,,,,,,,,0.000000000,1703862889.273732185,-0.199567315,-0.072491420,-0.991167367,0.043585546,0.096494511,-0.153520743,0.079852760,2.655019045,0.701996207,0.850298464
1706627034.804731,8432.000000000,1703862889.143789053,0.000000000,0.000000000,0.000000000,0.000000000,3.059293747,0.705576837,0.818772495,,,,,,,,,,,,
1706627034.825026,,,,,,,,,,0.000000000,1703862889.343812466,-0.213801509,-0.066510255,-0.990675151,0.040966265,0.103857577,-0.150185413,0.078090228,2.654838324,0.701782107,0.849683523
1706627034.832761,8433.000000000,1703862889.143957853,0.000000000,0.000000000,0.000000000,0.000000000,3.059293747,0.705576837,0.818772495,,,,,,,,,,,,
1706627034.836547,,,,,,,,,,0.000000000,1703862889.353776693,-0.217504026,-0.065920604,-0.990571141,0.040686961,0.105761148,-0.147940556,0.076993354,2.654799461,0.701731324,0.849545419
1706627034.845416,,,,,,,,,,0.000000000,1703862889.363703966,-0.204870369,-0.068562670,-0.990994036,0.041810773,0.099289276,-0.153103885,0.079526141,2.655004978,0.701899171,0.850040257
1706627034.855927,,,,,,,,,,0.000000000,1703862889.373772144,-0.231127881,-0.108943454,-0.989845753,0.060628045,0.111827232,-0.115341929,0.063437045,2.654774189,0.701323509,0.849475920
1706627034.864798,,,,,,,,,,0.000000000,1703862889.383507490,-0.241716795,-0.068702414,-0.990298986,0.040851597,0.118373014,-0.113132199,0.060224526,2.654282331,0.700333476,0.848652542
1706627034.867483,,,,,,,,,,0.000000000,1703862889.383555889,-0.241691432,-0.068366093,-0.990325093,0.040649582,0.118382543,-0.112543778,0.059912916,2.654230833,0.700349987,0.848650575
1706627034.874722,,,,,,,,,,0.000000000,1703862889.393840075,-0.231058860,-0.109470221,-0.989816487,0.060917649,0.111759648,-0.115890325,0.063736267,2.654803753,0.701328754,0.849494219
1706627034.877148,,,,,,,,,,0.000000000,1703862889.393955231,-0.209493243,-0.068204325,-0.990833819,0.041702546,0.101635501,-0.151169834,0.078610115,2.654904127,0.701854765,0.849869311
1706627034.884621,,,,,,,,,,0.000000000,1703862889.403560877,-0.243188016,-0.068880737,-0.990210593,0.040967356,0.119100124,-0.112951883,0.060165882,2.654287100,0.700306952,0.848626733
1706627034.887548,,,,,,,,,,0.000000000,1703862889.403643608,-0.242504464,-0.069846697,-0.990245581,0.041402474,0.118741333,-0.112523434,0.060001776,2.654287815,0.700344145,0.848605335
1706627034.896884,8434.000000000,1703862889.153537750,0.000000000,0.000000000,0.000000000,0.000000000,3.059293747,0.705576837,0.818772495,,,,,,,,,,,,
1706627034.901121,,,,,,,,,,0.000000000,1703862889.413766146,-0.243305401,-0.070094853,-0.990194380,0.041539516,0.119132869,-0.112414946,0.059973970,2.654293299,0.700349152,0.848575532
1706627034.905433,,,,,,,,,,0.000000000,1703862889.423655510,-0.243340939,-0.069403479,-0.990200758,0.041209701,0.119167209,-0.112609050,0.060029380,2.654261351,0.700332701,0.848589778
1706627034.915217,,,,,,,,,,0.000000000,1703862889.433572054,-0.244468731,-0.070335966,-0.990118921,0.041686442,0.119702697,-0.112375131,0.059984922,2.654309750,0.700357497,0.848560810
1706627034.918755,,,,,,,,,,0.000000000,1703862889.433622122,-0.203475477,-0.070299618,-0.991062045,0.042581111,0.098545812,-0.152296877,0.079193570,2.654964209,0.701910198,0.850102484
1706627034.925424,,,,,,,,,,0.000000000,1703862889.444134951,-0.243771990,-0.069993009,-0.990157008,0.041522637,0.119359560,-0.112775674,0.060152996,2.654345751,0.700346529,0.848590732
1706627034.937365,,,,,,,,,,0.000000000,1703862889.453507662,-0.174389971,-0.071678333,-0.995018661,0.038292572,0.085917518,-0.060065063,0.033013694,2.656048298,0.702011585,0.846406639
1706627034.940585,,,,,,,,,,0.000000000,1703862889.453557968,-0.241800698,-0.069340762,-0.990328193,0.041075971,0.118427947,-0.111546582,0.059478335,2.654371023,0.700359881,0.848627269
1706627034.944801,,,,,,,,,,0.000000000,1703862889.463591099,-0.242715258,-0.110491551,-0.989281833,0.061340317,0.117696665,-0.109436553,0.060880557,2.654653549,0.701100647,0.849083006
1706627034.955007,,,,,,,,,,0.000000000,1703862889.473548889,-0.240261296,-0.067747890,-0.990472496,0.040211890,0.117724888,-0.110936717,0.059061293,2.654442787,0.700220168,0.848709404
1706627034.957808,,,,,,,,,,0.000000000,1703862889.473784924,-0.220208064,-0.069173446,-0.990521550,0.042155243,0.107069202,-0.143513102,0.075008146,2.654946327,0.701538801,0.849536836
1706627034.966054,,,,,,,,,,0.000000000,1703862889.483612776,-0.172564133,-0.032391624,-0.995241463,0.019680256,0.085423723,-0.082637582,0.042542398,2.656033278,0.702056408,0.846208453
1706627034.973487,8435.000000000,1703862889.153657198,0.000000000,0.000000000,0.000000000,0.000000000,3.059293747,0.705576837,0.818772495,,,,,,,,,,,,
1706627034.975944,,,,,,,,,,0.000000000,1703862889.493655920,-0.172018743,-0.028998700,-0.995330870,0.017912393,0.085238777,-0.081028668,0.041593768,2.656064987,0.701893032,0.846234143
1706627034.984907,,,,,,,,,,0.000000000,1703862889.503713369,-0.169562140,-0.080716707,-0.995258808,0.042125780,0.083669655,-0.045714518,0.026170343,2.656342030,0.701349258,0.846688747
1706627035.004828,,,,,,,,,,0.000000000,1703862889.523682117,-0.173173119,-0.073596686,-0.995288968,0.038473085,0.085624762,-0.042333251,0.024252312,2.655979395,0.700930595,0.846646786
1706627035.014761,,,,,,,,,,0.000000000,1703862889.533589840,-0.043989414,3.007313744,-0.065245681,-0.994827449,-0.073062740,0.149580358,-0.026893754,2.657993317,0.702688873,0.815952897
1706627035.017211,,,,,,,,,,0.000000000,1703862889.533731699,-0.045650054,3.009980277,-0.063837588,-0.994849801,-0.073710196,0.150922220,-0.027665060,2.657979965,0.702702105,0.815894008
1706627035.024779,,,,,,,,,,0.000000000,1703862889.543699503,-0.047114105,3.011986869,-0.062768452,-0.994861424,-0.074210018,0.151968838,-0.028352078,2.657918453,0.702874064,0.815851390
1706627035.032866,8436.000000000,1703862889.153760910,0.000000000,0.000000000,0.000000000,0.000000000,3.059293747,0.705576837,0.818772495,,,,,,,,,,,,
1706627035.038370,,,,,,,,,,0.000000000,1703862889.553630829,-0.004878790,3.053683220,-0.043550536,-0.995095372,-0.088591672,0.177803027,-0.006328640,2.658498764,0.704009295,0.814364314
1706627035.045449,,,,,,,,,,0.000000000,1703862889.563562632,-0.005524329,3.053606028,-0.043561190,-0.995106280,-0.088440590,0.177528430,-0.006647258,2.658461571,0.704095066,0.814317405
1706627035.055317,,,,,,,,,,0.000000000,1703862889.573623419,-0.005358516,3.052414540,-0.044164564,-0.995122790,-0.087958179,0.176559411,-0.006596050,2.658449888,0.704141498,0.814327180
1706627035.058033,,,,,,,,,,0.000000000,1703862889.573754311,-0.065049421,2.994717928,-0.071034841,-0.994765878,-0.063336171,0.131954541,-0.037195541,2.658503056,0.702157259,0.816631258
1706627035.065728,,,,,,,,,,0.000000000,1703862889.583560944,-0.065245143,2.997696631,-0.069521993,-0.994825840,-0.064040542,0.133273877,-0.037244368,2.658526897,0.702170730,0.816551149
1706627035.085060,,,,,,,,,,0.000000000,1703862889.603710651,-0.063407488,2.996842656,-0.070038766,-0.994871676,-0.063302077,0.131684128,-0.036302276,2.658581495,0.702058971,0.816585481
1706627035.087696,,,,,,,,,,0.000000000,1703862889.603776693,-0.064227764,2.997596559,-0.069621384,-0.994861841,-0.063679077,0.132475386,-0.036713880,2.658619881,0.702027559,0.816574097
1706627035.094633,,,,,,,,,,0.000000000,1703862889.613637209,-0.004079350,3.053668450,-0.043595046,-0.995119274,-0.088329107,0.177240083,-0.005919271,2.658611774,0.703985035,0.814301670
1706627035.105370,,,,,,,,,,0.000000000,1703862889.623571157,-0.063487505,2.995918777,-0.070496723,-0.994840086,-0.063251950,0.131623083,-0.036369152,2.658601284,0.701930225,0.816623628
1706627035.107813,,,,,,,,,,0.000000000,1703862889.623630285,-0.064877880,2.996994898,-0.069902807,-0.994839430,-0.063527256,0.132240847,-0.037048116,2.658648968,0.701924324,0.816592574
1706627035.114790,8437.000000000,1703862889.163501501,0.000000000,0.000000000,0.000000000,0.000000000,3.059293747,0.705576837,0.818772495,,,,,,,,,,,,
1706627035.119259,,,,,,,,,,0.000000000,1703862889.633627176,-0.004977007,3.054112966,-0.043333951,-0.995127022,-0.088340931,0.177300669,-0.006347586,2.658595324,0.703990877,0.814276636
1706627035.127006,,,,,,,,,,0.000000000,1703862889.643709183,-0.064393150,2.996988590,-0.069904491,-0.994814634,-0.064030759,0.133217189,-0.036841404,2.658603191,0.702000618,0.816563010
1706627035.136293,,,,,,,,,,0.000000000,1703862889.653572083,-0.064138040,2.997784966,-0.069529913,-0.994868159,-0.063707851,0.132519632,-0.036664799,2.658549070,0.702062607,0.816544414
1706627035.138981,,,,,,,,,,0.000000000,1703862889.653778315,-0.004808739,3.053111255,-0.043840934,-0.995120823,-0.088164993,0.176945973,-0.006300337,2.658535004,0.704071641,0.814278901
1706627035.145124,,,,,,,,,,0.000000000,1703862889.663619280,-0.005170094,3.053382586,-0.043687094,-0.995087862,-0.088597730,0.177830031,-0.006487480,2.658558607,0.704083085,0.814307272
1706627035.154630,,,,,,,,,,0.000000000,1703862889.673663616,-0.005188742,3.054333019,-0.043214917,-0.995129645,-0.088363282,0.177353471,-0.006444358,2.658527613,0.704021037,0.814273477
1706627035.164828,,,,,,,,,,0.000000000,1703862889.683595896,-0.062896767,2.996116269,-0.070445642,-0.994902194,-0.062528998,0.130118255,-0.036016151,2.658529043,0.702059329,0.816596329
1706627035.175421,,,,,,,,,,0.000000000,1703862889.693568230,-0.063968700,2.996715477,-0.070066437,-0.994831026,-0.063728683,0.132588289,-0.036617063,2.658571005,0.701971471,0.816571176
1706627035.184983,,,,,,,,,,0.000000000,1703862889.703691244,-0.063359171,2.995462940,-0.070721649,-0.994814992,-0.063417524,0.131962958,-0.036331773,2.658549070,0.701972783,0.816628277
1706627035.188425,,,,,,,,,,0.000000000,1703862889.703824282,-0.064235226,2.997179450,-0.069829680,-0.994849026,-0.063642137,0.132417078,-0.036728833,2.658519745,0.701992095,0.816603959
1706627035.197607,8438.000000000,1703862889.163613796,0.000000000,0.000000000,0.000000000,0.000000000,3.059293747,0.705576837,0.818772495,,,,,,,,,,,,
1706627035.201372,,,,,,,,,,0.000000000,1703862889.713670969,-0.065002109,2.998939680,-0.068916328,-0.994879603,-0.063956842,0.133041223,-0.037075683,2.658474684,0.701992512,0.816572726
1706627035.204612,,,,,,,,,,0.000000000,1703862889.723721981,0.588109912,1.435053607,-0.543506265,-0.657391965,0.107428066,-0.991980742,0.510779917,2.658459425,0.719085336,0.856937826
1706627035.215079,,,,,,,,,,0.000000000,1703862889.733532429,0.587879738,1.435365148,-0.543472469,-0.657458901,0.107575461,-0.991933363,0.510698497,2.658411741,0.719078004,0.856974065
1706627035.217683,,,,,,,,,,0.000000000,1703862889.733625412,0.587773420,1.436525501,-0.543213844,-0.657785237,0.107785590,-0.991554305,0.510509133,2.658365726,0.719039559,0.856968164
1706627035.226006,,,,,,,,,,0.000000000,1703862889.743645430,0.587488047,1.436280724,-0.543373227,-0.657695591,0.107815214,-0.991519974,0.510448754,2.658333063,0.719030559,0.856972098
1706627035.236586,,,,,,,,,,0.000000000,1703862889.753478050,0.588504773,1.436033018,-0.543013275,-0.657677054,0.107630245,-0.992270060,0.510894597,2.658330679,0.719033122,0.856980920
1706627035.239959,,,,,,,,,,0.000000000,1703862889.753663778,0.590117791,1.437287041,-0.542538285,-0.658228457,0.106935628,-0.990961396,0.510835052,2.658338547,0.719045341,0.857060790
1706627035.245280,,,,,,,,,,0.000000000,1703862889.763783693,0.587951284,1.435995308,-0.543370187,-0.657662213,0.107552715,-0.991453681,0.510550380,2.658363581,0.719026446,0.856970906
1706627035.254900,,,,,,,,,,0.000000000,1703862889.773568869,0.590590382,1.436322873,-0.542433023,-0.657944024,0.106912270,-0.992159603,0.511317849,2.658341408,0.719037116,0.857045770
1706627035.257510,,,,,,,,,,0.000000000,1703862889.773650408,0.588227282,1.435987631,-0.543159246,-0.657653630,0.107638299,-0.992024048,0.510767817,2.658344984,0.719019175,0.856993556
1706627035.265474,8439.000000000,1703862889.173591614,0.000000000,0.000000000,0.000000000,0.000000000,3.059293747,0.705576837,0.818772495,,,,,,,,,,,,
1706627035.269967,,,,,,,,,,0.000000000,1703862889.783698559,0.588031919,1.436299069,-0.543248534,-0.657751381,0.107603543,-0.991461292,0.510554254,2.658414125,0.718975365,0.857010186
1706627035.275891,,,,,,,,,,0.000000000,1703862889.793652058,0.588743263,1.436345480,-0.543679774,-0.657956421,0.106556691,-0.989026380,0.510050297,2.658524275,0.718840420,0.856972039
1706627035.285044,,,,,,,,,,0.000000000,1703862889.803668022,-0.015468111,3.060524578,-0.039878178,-0.996698558,-0.069931872,0.140724772,-0.010557359,2.657809019,0.702428222,0.814495862
1706627035.295085,,,,,,,,,,0.000000000,1703862889.813581228,-0.016509516,3.061026013,-0.039583974,-0.996657789,-0.070594512,0.142091724,-0.011085846,2.657771587,0.702374279,0.814500809
1706627035.305638,,,,,,,,,,0.000000000,1703862889.823637724,-0.017252293,3.062214377,-0.038962413,-0.996661127,-0.070838541,0.142598164,-0.011423903,2.657724619,0.702361107,0.814520478
1706627035.308103,,,,,,,,,,0.000000000,1703862889.823773384,-0.018271692,3.063916089,-0.038077224,-0.996686637,-0.070887230,0.142716667,-0.011873870,2.657671452,0.702344775,0.814475238
1706627035.315595,,,,,,,,,,0.000000000,1703862889.833570242,-0.018771580,3.062861238,-0.038579337,-0.996631742,-0.071334824,0.143647468,-0.012178310,2.657656431,0.702353954,0.814530730
1706627035.319779,,,,,,,,,,0.000000000,1703862889.833612442,-0.018757331,3.063600808,-0.038210206,-0.996639490,-0.071430027,0.143828927,-0.012148297,2.657614231,0.702339232,0.814524591
1706627035.327404,,,,,,,,,,0.000000000,1703862889.843819141,-0.019437883,3.067792088,-0.036094081,-0.996698260,-0.071676224,0.144297770,-0.012346182,2.657594919,0.702346206,0.814506769
