__time,/pred_cup_pose/header/header/seq,/pred_cup_pose/header/header/stamp,/pred_cup_pose/pose/orientation/w,/pred_cup_pose/pose/orientation/x,/pred_cup_pose/pose/orientation/y,/pred_cup_pose/pose/orientation/z,/pred_cup_pose/pose/position/x,/pred_cup_pose/pose/position/y,/pred_cup_pose/pose/position/z,/vrpn_mocap/cup/pose/header/header/seq,/vrpn_mocap/cup/pose/header/header/stamp,/vrpn_mocap/cup/pose/pose/orientation/pitch,/vrpn_mocap/cup/pose/pose/orientation/roll,/vrpn_mocap/cup/pose/pose/orientation/w,/vrpn_mocap/cup/pose/pose/orientation/x,/vrpn_mocap/cup/pose/pose/orientation/y,/vrpn_mocap/cup/pose/pose/orientation/yaw,/vrpn_mocap/cup/pose/pose/orientation/z,/vrpn_mocap/cup/pose/pose/position/x,/vrpn_mocap/cup/pose/pose/position/y,/vrpn_mocap/cup/pose/pose/position/z
1706626564.053978,1374.000000000,1703862876.253707647,0.000000000,0.000000000,0.000000000,0.000000000,3.073505402,0.713112354,0.841489434,,,,,,,,,,,,
1706626564.108324,1375.000000000,1703862876.263516903,0.000000000,0.000000000,0.000000000,0.000000000,3.073505402,0.713112354,0.841489434,,,,,,,,,,,,
1706626564.171144,1376.000000000,1703862876.263557911,0.000000000,0.000000000,0.000000000,0.000000000,3.073505402,0.713112354,0.841489434,,,,,,,,,,,,
1706626564.225511,1377.000000000,1703862876.283502579,0.000000000,0.000000000,0.000000000,0.000000000,3.073505402,0.713112354,0.841489434,,,,,,,,,,,,
1706626564.259975,,,,,,,,,,0.000000000,1703862876.703815222,-0.161864458,0.152494566,-0.992372513,-0.070891686,0.085068516,-0.121461591,0.054172244,2.655417681,0.698241889,0.845379412
1706626564.270332,,,,,,,,,,0.000000000,1703862876.713669538,-0.010877875,3.032989727,-0.053757064,-0.996055245,-0.069992080,0.140899190,-0.009237841,2.658384323,0.703321815,0.814388633
1706626564.280059,,,,,,,,,,0.000000000,1703862876.723816156,-0.012542225,3.038317498,-0.051039129,-0.996153176,-0.070539102,0.142035235,-0.009909322,2.658517122,0.703504264,0.814348459
1706626564.288552,1378.000000000,1703862876.283547401,0.000000000,0.000000000,0.000000000,0.000000000,3.073505402,0.713112354,0.841489434,,,,,,,,,,,,
1706626564.291432,,,,,,,,,,0.000000000,1703862876.733774900,-0.012666375,3.039900790,-0.050251573,-0.996231973,-0.069992334,0.140928213,-0.009887500,2.658553839,0.703576803,0.814325094
1706626564.299731,,,,,,,,,,0.000000000,1703862876.743606567,-0.011878537,3.038989411,-0.050738454,-0.996247292,-0.069474861,0.139857617,-0.009499826,2.658550978,0.703590035,0.814345241
1706626564.302570,,,,,,,,,,0.000000000,1703862876.743684053,-0.011898429,3.040995665,-0.049740002,-0.996309698,-0.069311686,0.139512000,-0.009431443,2.658565998,0.703633547,0.814303041
1706626564.311202,,,,,,,,,,0.000000000,1703862876.753713131,-0.011784063,3.039645378,-0.050420057,-0.996301115,-0.068946488,0.138785818,-0.009402962,2.658576012,0.703652263,0.814341307
1706626564.314754,,,,,,,,,,0.000000000,1703862876.754155159,-0.012006119,3.038270724,-0.051096559,-0.996262014,-0.068991549,0.138900856,-0.009563897,2.658589840,0.703710914,0.814344108
1706626564.320489,,,,,,,,,,0.000000000,1703862876.763687372,-0.011322178,3.038282215,-0.051120583,-0.996307433,-0.068365708,0.137608761,-0.009189798,2.658594370,0.703741491,0.814310968
1706626564.330366,,,,,,,,,,0.000000000,1703862876.774232626,-0.004509863,3.032403311,-0.054237943,-0.995622694,-0.075847223,0.152314118,-0.006396722,2.658835888,0.703182876,0.814608335
1706626564.339647,,,,,,,,,,0.000000000,1703862876.783592463,-0.005224844,3.032640455,-0.054094885,-0.995654464,-0.075503305,0.151660865,-0.006725981,2.658856869,0.703213513,0.814582825
1706626564.342149,,,,,,,,,,0.000000000,1703862876.783651352,-0.005938297,3.031887565,-0.054440275,-0.995609283,-0.075813882,0.152329167,-0.007127756,2.658908844,0.703236341,0.814613879
1706626564.346295,1379.000000000,1703862876.293527842,0.000000000,0.000000000,0.000000000,0.000000000,3.073505402,0.713112354,0.841489434,,,,,,,,,,,,
1706626564.349486,,,,,,,,,,0.000000000,1703862876.793735743,-0.004789926,3.031646458,-0.054610409,-0.995675623,-0.074869812,0.150371058,-0.006511785,2.658912420,0.703207970,0.814627647
1706626564.359634,,,,,,,,,,0.000000000,1703862876.803646803,-0.004958340,3.032667470,-0.054096498,-0.995711744,-0.074758910,0.150150853,-0.006551450,2.658918619,0.703216493,0.814605594
1706626564.361748,,,,,,,,,,0.000000000,1703862876.803897142,-0.005187518,3.032320511,-0.054261789,-0.995715439,-0.074579366,0.149805079,-0.006669132,2.658914566,0.703213751,0.814625084
1706626564.370353,,,,,,,,,,0.000000000,1703862876.813773394,-0.007131239,3.033046016,-0.053825509,-0.995713472,-0.074828692,0.150407079,-0.007625971,2.658924341,0.703230500,0.814606369
1706626564.380248,,,,,,,,,,0.000000000,1703862876.823866129,-0.013557196,3.038910521,-0.050743818,-0.996408343,-0.067016609,0.135010732,-0.010215761,2.658680916,0.703749359,0.814333916
1706626564.382778,,,,,,,,,,0.000000000,1703862876.824071646,-0.013552106,3.039960744,-0.050219487,-0.996426463,-0.067146286,0.135260010,-0.010184292,2.658651352,0.703722715,0.814279079
1706626564.390025,,,,,,,,,,0.000000000,1703862876.833774090,-0.014255440,3.038807329,-0.050770406,-0.996397018,-0.067109302,0.135234090,-0.010572739,2.658609629,0.703703046,0.814302325
1706626564.403804,,,,,,,,,,0.000000000,1703862876.843616962,-0.013877155,3.037879856,-0.051249545,-0.996401310,-0.066707104,0.134416830,-0.010394470,2.658552408,0.703708291,0.814341366
1706626564.409931,,,,,,,,,,0.000000000,1703862876.843784332,-0.013412759,3.037974114,-0.051225945,-0.996454954,-0.065962918,0.132897838,-0.010121072,2.658491611,0.703716815,0.814350069
1706626564.416494,,,,,,,,,,0.000000000,1703862876.853680849,-0.014489793,3.038687091,-0.050830685,-0.996445596,-0.066325448,0.133674204,-0.010653880,2.658504009,0.703679562,0.814322770
1706626564.444034,1380.000000000,1703862876.293582201,0.000000000,0.000000000,0.000000000,0.000000000,3.073505402,0.713112354,0.841489434,,,,,,,,,,,,
1706626564.500569,,,,,,,,,,0.000000000,1703862876.943619013,0.099004404,2.567016894,-0.267161876,-0.940189302,0.183576360,-0.414931050,0.104729950,2.641364813,0.708153963,0.831674457
1706626564.509259,1381.000000000,1703862876.303586245,0.000000000,0.000000000,0.000000000,0.000000000,3.073505402,0.713112354,0.841489434,,,,,,,,,,,,
1706626564.513586,,,,,,,,,,0.000000000,1703862876.953572035,0.099183903,2.566265131,-0.267454743,-0.940017104,0.183883652,-0.415723420,0.104988769,2.641349554,0.708128989,0.831670702
1706626564.529773,,,,,,,,,,0.000000000,1703862876.973635435,0.099097453,2.563432586,-0.268749893,-0.939558148,0.184149325,-0.416579275,0.105323747,2.641357183,0.708128631,0.831732690
1706626564.550004,,,,,,,,,,0.000000000,1703862876.993622065,0.098394771,2.563723948,-0.268756688,-0.939714372,0.183645055,-0.415257801,0.104791284,2.641402721,0.708194375,0.831720710
1706626564.592943,1382.000000000,1703862876.813773394,0.000000000,0.000000000,0.000000000,0.000000000,3.073505402,0.713112354,0.841489434,,,,,,,,,,,,
1706626564.674583,1383.000000000,1703862876.823683262,0.000000000,0.000000000,0.000000000,0.000000000,3.073505402,0.713112354,0.841489434,,,,,,,,,,,,
1706626564.731080,1384.000000000,1703862876.823866129,0.000000000,0.000000000,0.000000000,0.000000000,3.073505402,0.713112354,0.841489434,,,,,,,,,,,,
1706626564.770651,,,,,,,,,,0.000000000,1703862877.213779688,-0.014832202,3.032168417,-0.054046914,-0.996154308,-0.068056382,0.137238567,-0.011136897,2.658561945,0.703980625,0.814392447
1706626564.780041,,,,,,,,,,0.000000000,1703862877.223689556,-0.015132946,3.031479398,-0.054379761,-0.996135175,-0.068042032,0.137234203,-0.011310006,2.658574343,0.703946650,0.814378679
1706626564.782626,,,,,,,,,,0.000000000,1703862877.224097490,-0.014905259,3.032849158,-0.053705547,-0.996173739,-0.068038605,0.137199302,-0.011149063,2.658553839,0.704012513,0.814377666
1706626564.791987,1385.000000000,1703862876.824071646,0.000000000,0.000000000,0.000000000,0.000000000,3.073505402,0.713112354,0.841489434,,,,,,,,,,,,
1706626564.795256,,,,,,,,,,0.000000000,1703862877.233588457,-0.015420957,3.033853042,-0.053183600,-0.996174693,-0.068395302,0.137932267,-0.011391258,2.658564091,0.703999281,0.814352274
1706626564.800324,,,,,,,,,,0.000000000,1703862877.243621349,-0.015378474,3.033248948,-0.053485226,-0.996154189,-0.068456717,0.138060173,-0.011394177,2.658543348,0.703974128,0.814347863
1706626564.810851,,,,,,,,,,0.000000000,1703862877.253781319,-0.015823903,3.033585616,-0.053296365,-0.996128380,-0.068939157,0.139049246,-0.011630859,2.658562183,0.703986466,0.814333200
1706626564.813328,,,,,,,,,,0.000000000,1703862877.254226685,-0.016233504,3.034058854,-0.053049963,-0.996160984,-0.068627045,0.138439371,-0.011802367,2.658539534,0.703996301,0.814332128
1706626564.820975,,,,,,,,,,0.000000000,1703862877.263783693,-0.016930758,3.034388728,-0.052851398,-0.996111214,-0.069431841,0.140089104,-0.012181917,2.658561945,0.704007447,0.814330697
1706626564.830129,,,,,,,,,,0.000000000,1703862877.273762941,-0.015962961,3.034807276,-0.052687675,-0.996187806,-0.068545736,0.138252658,-0.011637020,2.658508778,0.704036653,0.814320922
1706626564.841106,,,,,,,,,,0.000000000,1703862877.283807993,-0.015658615,3.033441134,-0.053376030,-0.996136427,-0.068775870,0.138714051,-0.011544575,2.658505440,0.704044104,0.814345658
1706626564.843531,,,,,,,,,,0.000000000,1703862877.283958673,-0.013648954,3.021993442,-0.059139483,-0.995771527,-0.069434054,0.140049628,-0.010976975,2.658438683,0.703807890,0.814371467
1706626564.847615,1386.000000000,1703862876.833633661,0.000000000,0.000000000,0.000000000,0.000000000,3.073505402,0.713112354,0.841489434,,,,,,,,,,,,
1706626564.850171,,,,,,,,,,0.000000000,1703862877.293610811,-0.014020341,3.019557971,-0.060334649,-0.995671570,-0.069792628,0.140819695,-0.011269636,2.658458471,0.703832686,0.814428866
1706626564.859725,,,,,,,,,,0.000000000,1703862877.303810835,-0.012469034,3.022154930,-0.059100341,-0.995776594,-0.069487482,0.140084055,-0.010384951,2.658454180,0.703816950,0.814375699
1706626564.861915,,,,,,,,,,0.000000000,1703862877.304164171,-0.012416728,3.022195030,-0.059086267,-0.995804965,-0.069098763,0.139299769,-0.010334346,2.658442736,0.703816175,0.814370930
1706626564.869811,,,,,,,,,,0.000000000,1703862877.313790560,-0.014081969,3.032967049,-0.053667631,-0.996130466,-0.068759732,0.138600627,-0.010772609,2.658559084,0.704098940,0.814393461
1706626564.880943,,,,,,,,,,0.000000000,1703862877.323958158,-0.190881738,0.031494444,-0.993768871,-0.010176651,0.096027195,-0.114927676,0.055665646,2.654561996,0.700946629,0.845736623
1706626564.890213,,,,,,,,,,0.000000000,1703862877.333711863,-0.192978280,0.028145917,-0.993760228,-0.008583541,0.096963808,-0.112203797,0.054452527,2.654556036,0.700917661,0.845719039
1706626564.900077,,,,,,,,,,0.000000000,1703862877.343624115,-0.187897178,0.038306767,-0.993871808,-0.013656585,0.094732516,-0.114778667,0.055300701,2.654693842,0.700732827,0.845696688
1706626564.909882,,,,,,,,,,0.000000000,1703862877.353685141,-0.186918799,0.040798849,-0.993885279,-0.014900234,0.094318993,-0.115279252,0.055443924,2.654688835,0.700717568,0.845699489
1706626564.913157,,,,,,,,,,0.000000000,1703862877.353899002,-0.186941874,0.039981953,-0.993886888,-0.014488006,0.094308659,-0.115397850,0.055541087,2.654672623,0.700743556,0.845705211
1706626564.917946,1387.000000000,1703862876.833774090,0.000000000,0.000000000,0.000000000,0.000000000,3.073505402,0.713112354,0.841489434,,,,,,,,,,,,
1706626564.920359,,,,,,,,,,0.000000000,1703862877.363723516,-0.187636684,0.040153270,-0.993870378,-0.014581046,0.094654240,-0.114795730,0.055224996,2.654655933,0.700758934,0.845698357
1706626564.931948,,,,,,,,,,0.000000000,1703862877.373607874,-0.186633083,0.040422861,-0.993891418,-0.014705259,0.094169207,-0.115631610,0.055640396,2.654691219,0.700747430,0.845701814
1706626564.934835,,,,,,,,,,0.000000000,1703862877.374067545,-0.189217966,0.037748289,-0.993871689,-0.013440155,0.095359229,-0.112682031,0.054269336,2.654632092,0.700758636,0.845687151
1706626564.940092,,,,,,,,,,0.000000000,1703862877.383733034,-0.188237417,0.039133263,-0.993892312,-0.014129893,0.094913617,-0.113248544,0.054496951,2.654641628,0.700756490,0.845683396
1706626564.949664,,,,,,,,,,0.000000000,1703862877.393685818,-0.192034874,0.028079142,-0.993797004,-0.008562585,0.096494593,-0.112509227,0.054616652,2.654562473,0.700944304,0.845746040
1706626564.959415,,,,,,,,,,0.000000000,1703862877.403501987,-0.192599905,0.026508864,-0.993815482,-0.007835349,0.096726827,-0.111078368,0.053976163,2.654564857,0.700933933,0.845714629
1706626564.961611,,,,,,,,,,0.000000000,1703862877.403792620,-0.191880523,0.026614984,-0.993827879,-0.007870316,0.096375391,-0.111868970,0.054370571,2.654595852,0.700938225,0.845695257
1706626564.969489,,,,,,,,,,0.000000000,1703862877.413781166,-0.194003979,0.022533709,-0.993807793,-0.005903694,0.097311936,-0.109368580,0.053307105,2.654596806,0.700957239,0.845688939
1706626564.980964,1388.000000000,1703862876.843616962,0.000000000,0.000000000,0.000000000,0.000000000,3.073505402,0.713112354,0.841489434,,,,,,,,,,,,
1706626564.983537,,,,,,,,,,0.000000000,1703862877.424033880,-0.194172170,0.023634232,-0.993821859,-0.006492720,0.097421713,-0.108406947,0.052774280,2.654573679,0.700971782,0.845695615
1706626564.991725,,,,,,,,,,0.000000000,1703862877.433690310,-0.196037254,-0.004666432,-0.994125128,0.006838699,0.097649857,-0.092391192,0.046185475,2.654690027,0.700855792,0.845872402
1706626565.000602,,,,,,,,,,0.000000000,1703862877.444084644,-0.191353692,-0.020844150,-0.994413733,0.014461831,0.094992891,-0.085807512,0.043686811,2.654865265,0.700861812,0.846114993
1706626565.009721,,,,,,,,,,0.000000000,1703862877.453653574,-0.012828388,3.024058599,-0.058117058,-0.995679438,-0.071638010,0.144404972,-0.010623307,2.658521891,0.703939855,0.814361572
1706626565.019572,,,,,,,,,,0.000000000,1703862877.463687181,-0.192781167,0.023015187,-0.993858755,-0.006165724,0.096717916,-0.109599279,0.053408537,2.654584408,0.701044083,0.845728993
1706626565.029985,,,,,,,,,,0.000000000,1703862877.473777533,-0.193011772,0.023072012,-0.993860483,-0.006210936,0.096832521,-0.109116247,0.053163830,2.654591084,0.701085389,0.845755935
1706626565.032322,,,,,,,,,,0.000000000,1703862877.473940372,-0.012322456,3.024469001,-0.057933562,-0.995709240,-0.071414061,0.143920862,-0.010342722,2.658505201,0.703994870,0.814376473
1706626565.040186,,,,,,,,,,0.000000000,1703862877.483624220,-0.012046203,3.024122126,-0.058117680,-0.995709658,-0.071277820,0.143634443,-0.010209260,2.658500671,0.704017401,0.814385235
1706626565.052932,,,,,,,,,,0.000000000,1703862877.493708134,-0.192898457,0.022895418,-0.993869364,-0.006131690,0.096771181,-0.109005219,0.053118147,2.654586077,0.701116502,0.845766127
1706626565.061111,1389.000000000,1703862876.843784332,0.000000000,0.000000000,0.000000000,0.000000000,3.073505402,0.713112354,0.841489434,,,,,,,,,,,,
1706626565.065607,,,,,,,,,,0.000000000,1703862877.503928661,-0.192732032,0.022306281,-0.993871450,-0.005829593,0.096673682,-0.109293521,0.053291280,2.654594660,0.701075077,0.845744610
1706626565.071633,,,,,,,,,,0.000000000,1703862877.513661146,-0.011814260,3.026583757,-0.056899406,-0.995773196,-0.071400665,0.143842597,-0.010011967,2.658502817,0.703995407,0.814310551
1706626565.075964,,,,,,,,,,0.000000000,1703862877.513721943,-0.191994851,0.022841546,-0.993894756,-0.006097699,0.096322805,-0.109674053,0.053460624,2.654591799,0.701100588,0.845725298
1706626565.081341,,,,,,,,,,0.000000000,1703862877.523551226,-0.191667912,-0.023111106,-0.994409621,0.015534361,0.095109567,-0.084521743,0.043156337,2.654865980,0.700948954,0.846159399
1706626565.085617,,,,,,,,,,0.000000000,1703862877.523702145,-0.192664633,0.022860891,-0.993888617,-0.006135576,0.096653156,-0.108703598,0.052971870,2.654571056,0.701080859,0.845755577
1706626565.091868,,,,,,,,,,0.000000000,1703862877.533674717,-0.192624978,0.020445217,-0.993892252,-0.004927156,0.096569866,-0.108891063,0.053182039,2.654603004,0.701083183,0.845758915
1706626565.102481,,,,,,,,,,0.000000000,1703862877.543600321,-0.193234168,0.019542406,-0.993878961,-0.004486821,0.096847385,-0.108372768,0.052963510,2.654601336,0.701063931,0.845756471
1706626565.107482,,,,,,,,,,0.000000000,1703862877.543665886,-0.193895832,0.019402204,-0.993872821,-0.004445730,0.097170308,-0.107411083,0.052487485,2.654574394,0.701060474,0.845729053
1706626565.112306,,,,,,,,,,0.000000000,1703862877.553749800,-0.192882694,0.021607236,-0.993898511,-0.005536983,0.096726552,-0.108074760,0.052718207,2.654568672,0.701074421,0.845730782
1706626565.116954,,,,,,,,,,0.000000000,1703862877.553886890,-0.193999430,0.019131364,-0.993874252,-0.004319013,0.097214207,-0.107191200,0.052390616,2.654550552,0.701058209,0.845714867
1706626565.121643,,,,,,,,,,0.000000000,1703862877.563521147,-0.193201071,0.022444961,-0.993871748,-0.005927873,0.096907839,-0.108419146,0.052846219,2.654533863,0.701087713,0.845740199
1706626565.124902,,,,,,,,,,0.000000000,1703862877.563594103,-0.194098703,0.019473027,-0.993867338,-0.004483496,0.097272605,-0.107244830,0.052399922,2.654527426,0.701068282,0.845708907
1706626565.133289,1390.000000000,1703862876.853680849,0.000000000,0.000000000,0.000000000,0.000000000,3.073505402,0.713112354,0.841489434,,,,,,,,,,,,
1706626565.136678,,,,,,,,,,0.000000000,1703862877.573799133,-0.013108095,3.027034119,-0.056620549,-0.995730877,-0.072111413,0.145340401,-0.010682452,2.658485413,0.703961849,0.814287901
1706626565.141403,,,,,,,,,,0.000000000,1703862877.583539963,-0.013345030,3.025944104,-0.057152975,-0.995688856,-0.072247013,0.145638318,-0.010848218,2.658476114,0.703981221,0.814299881
1706626565.144037,,,,,,,,,,0.000000000,1703862877.583595037,-0.013459905,3.025086499,-0.057575397,-0.995661914,-0.072269239,0.145699076,-0.010938130,2.658471107,0.704002440,0.814322174
1706626565.156541,,,,,,,,,,0.000000000,1703862877.593636036,-0.013120222,3.027049363,-0.056614574,-0.995745182,-0.071919709,0.144955885,-0.010677056,2.658482313,0.704003036,0.814284265
1706626565.160819,,,,,,,,,,0.000000000,1703862877.593700171,-0.013360570,3.025170867,-0.057535663,-0.995655417,-0.072396994,0.145948937,-0.010892821,2.658503056,0.704020858,0.814342201
1706626565.163207,,,,,,,,,,0.000000000,1703862877.603940248,-0.013059870,3.026828596,-0.056721427,-0.995703399,-0.072410099,0.145939766,-0.010682853,2.658517361,0.704034090,0.814313173
1706626565.169500,,,,,,,,,,0.000000000,1703862877.613573790,-0.012885273,3.027112486,-0.056587674,-0.995719850,-0.072304301,0.145714120,-0.010579271,2.658513308,0.704045296,0.814312994
1706626565.171638,,,,,,,,,,0.000000000,1703862877.613631964,-0.013134778,3.027398532,-0.056434453,-0.995716155,-0.072456568,0.146031307,-0.010702093,2.658520222,0.704034448,0.814296424
1706626565.179574,,,,,,,,,,0.000000000,1703862877.623732805,-0.012008189,3.025435682,-0.057459079,-0.995705366,-0.071872979,0.144814216,-0.010177414,2.658509731,0.704035342,0.814332128
1706626565.189967,,,,,,,,,,0.000000000,1703862877.633604527,-0.193981464,0.018567084,-0.993882179,-0.004049961,0.097190045,-0.106967451,0.052306984,2.654572010,0.701163530,0.845745027
1706626565.200503,,,,,,,,,,0.000000000,1703862877.643812180,-0.012872047,3.025999396,-0.057143439,-0.995695889,-0.072192900,0.145501434,-0.010606850,2.658476591,0.704049110,0.814334691
1706626565.205109,1391.000000000,1703862876.943619013,0.000000000,0.000000000,0.000000000,0.000000000,3.073505402,0.713112354,0.841489434,,,,,,,,,,,,
1706626565.210171,,,,,,,,,,0.000000000,1703862877.653738976,-0.194169109,0.019282209,-0.993886769,-0.004428477,0.097300701,-0.106387390,0.051982589,2.654519796,0.701160789,0.845720887
1706626565.212659,,,,,,,,,,0.000000000,1703862877.654195070,-0.194170587,0.019319496,-0.993899047,-0.004470304,0.097301334,-0.105907697,0.051742382,2.654501200,0.701160133,0.845733285
1706626565.219599,,,,,,,,,,0.000000000,1703862877.663713694,-0.192796061,0.019440663,-0.993909955,-0.004466134,0.096626177,-0.108003105,0.052787993,2.654500246,0.701092184,0.845716298
1706626565.229887,,,,,,,,,,0.000000000,1703862877.673740864,-0.193894785,0.017340756,-0.993891239,-0.003447790,0.097114705,-0.106866526,0.052317008,2.654483318,0.701089799,0.845730662
1706626565.242147,,,,,,,,,,0.000000000,1703862877.683584213,-0.193241016,0.018184914,-0.993909538,-0.003863625,0.096812770,-0.107307142,0.052499622,2.654502392,0.701093972,0.845732987
1706626565.244908,,,,,,,,,,0.000000000,1703862877.683731079,-0.193896959,0.018874671,-0.993897915,-0.004228114,0.097155094,-0.106493704,0.052057222,2.654495478,0.701072037,0.845709264
1706626565.250434,,,,,,,,,,0.000000000,1703862877.693650484,-0.194382313,0.017826346,-0.993895948,-0.003730235,0.097367592,-0.105751164,0.051735740,2.654492855,0.701073527,0.845716476
1706626565.260027,,,,,,,,,,0.000000000,1703862877.703760386,-0.192561154,0.018557174,-0.993930697,-0.004047586,0.096485525,-0.107710996,0.052687194,2.654554129,0.701041043,0.845732152
1706626565.271158,1392.000000000,1703862877.603705168,0.000000000,0.000000000,0.000000000,0.000000000,3.073505402,0.713112354,0.841489434,,,,,,,,,,,,
1706626565.273861,,,,,,,,,,0.000000000,1703862877.713731766,-0.193202245,0.021610160,-0.993915856,-0.005590144,0.096881934,-0.106826593,0.052095238,2.654513597,0.701035082,0.845744431
1706626565.280798,,,,,,,,,,0.000000000,1703862877.723549843,-0.193079381,0.020461151,-0.993910193,-0.004995391,0.096792340,-0.107385893,0.052429780,2.654546499,0.701005399,0.845742404
1706626565.282985,,,,,,,,,,0.000000000,1703862877.723732471,-0.192234848,0.022937183,-0.993905783,-0.006179707,0.096441984,-0.108820509,0.053029854,2.654530525,0.700990736,0.845744789
1706626565.289816,,,,,,,,,,0.000000000,1703862877.733731747,-0.193053447,0.023860906,-0.993890643,-0.006665432,0.096869834,-0.107802632,0.052472491,2.654505730,0.700956821,0.845749080
1706626565.301655,,,,,,,,,,0.000000000,1703862877.743555546,-0.012724639,3.026473441,-0.056911476,-0.995700419,-0.072326079,0.145755328,-0.010523579,2.658426285,0.703910112,0.814376771
1706626565.305449,,,,,,,,,,0.000000000,1703862877.743645430,-0.014053518,3.039309093,-0.050483234,-0.996121526,-0.071271822,0.143574568,-0.010665928,2.658493280,0.704156160,0.814335167
1706626565.309959,,,,,,,,,,0.000000000,1703862877.753514290,-0.014290360,3.038391086,-0.050928298,-0.996073902,-0.071594551,0.144244763,-0.010833660,2.658506632,0.704147458,0.814362109
1706626565.312708,,,,,,,,,,0.000000000,1703862877.753636360,-0.014764559,3.039534205,-0.050340448,-0.996093094,-0.071713068,0.144494775,-0.011035194,2.658499241,0.704115510,0.814332902
1706626565.320039,,,,,,,,,,0.000000000,1703862877.763819456,-0.014989352,3.038248300,-0.050972752,-0.996060193,-0.071698047,0.144490647,-0.011193141,2.658483744,0.704147696,0.814384460
1706626565.330910,1393.000000000,1703862877.603786469,0.000000000,0.000000000,0.000000000,0.000000000,3.073505402,0.713112354,0.841489434,,,,,,,,,,,,
1706626565.333542,,,,,,,,,,0.000000000,1703862877.773720264,-0.192134290,-0.048368473,-0.993583858,0.029106207,0.094484776,-0.105783257,0.054924089,2.655064821,0.702110171,0.846186876
1706626565.344453,,,,,,,,,,0.000000000,1703862877.783545017,-0.191354667,-0.048492208,-0.993603706,0.029175550,0.094085447,-0.106367317,0.055212677,2.655060768,0.702144563,0.846197128
1706626565.347908,,,,,,,,,,0.000000000,1703862877.783672333,-0.014937556,3.038302044,-0.050949611,-0.996072888,-0.071543828,0.144177678,-0.011157447,2.658482075,0.704169452,0.814394116
1706626565.350773,,,,,,,,,,0.000000000,1703862877.793711662,-0.015284179,3.037822301,-0.051169787,-0.996020675,-0.072077259,0.145272351,-0.011375236,2.658504248,0.704165339,0.814399302
1706626565.362080,,,,,,,,,,0.000000000,1703862877.803555965,-0.013806787,3.039061894,-0.050615311,-0.996116161,-0.071269400,0.143559579,-0.010551477,2.658460379,0.704149425,0.814354002
1706626565.364688,,,,,,,,,,0.000000000,1703862877.803868771,-0.015488925,3.039817206,-0.050169297,-0.996073842,-0.072041593,0.145188569,-0.011403200,2.658500433,0.704145730,0.814329505
1706626565.370003,,,,,,,,,,0.000000000,1703862877.813784122,-0.015205960,3.040439955,-0.049870245,-0.996095121,-0.071981564,0.145046433,-0.011236303,2.658504725,0.704126716,0.814308524
1706626565.379630,,,,,,,,,,0.000000000,1703862877.823723078,-0.015962309,3.040675002,-0.049724072,-0.996089518,-0.072100222,0.145320657,-0.011611339,2.658509493,0.704121947,0.814286649
1706626565.390018,,,,,,,,,,0.000000000,1703862877.833612442,-0.015171250,3.039570059,-0.050308518,-0.996097445,-0.071643874,0.144376436,-0.011233471,2.658477068,0.704171598,0.814336121
1706626565.394260,,,,,,,,,,0.000000000,1703862877.833678246,-0.015045185,3.039419687,-0.050387643,-0.996091783,-0.071675859,0.144435837,-0.011177571,2.658473969,0.704163671,0.814328969
1706626565.400832,,,,,,,,,,0.000000000,1703862877.843608141,-0.015023419,3.039447542,-0.050376114,-0.996102452,-0.071537510,0.144156627,-0.011158700,2.658473492,0.704140127,0.814325929
1706626565.403759,,,,,,,,,,0.000000000,1703862877.843758106,-0.015645922,3.040535316,-0.049805842,-0.996090949,-0.072049633,0.145204520,-0.011455918,2.658492327,0.704140246,0.814299226
1706626565.410604,,,,,,,,,,0.000000000,1703862877.853929996,-0.016070423,3.039931816,-0.050092287,-0.996083200,-0.071921140,0.144975314,-0.011683322,2.658506870,0.704131603,0.814331472
1706626565.416064,1394.000000000,1703862877.603940248,0.000000000,0.000000000,0.000000000,0.000000000,3.073505402,0.713112354,0.841489434,,,,,,,,,,,,
1706626565.420474,,,,,,,,,,0.000000000,1703862877.863758802,-0.015545182,3.039854511,-0.050149582,-0.996080399,-0.071960568,0.145028354,-0.011425856,2.658513308,0.704118192,0.814331114
1706626565.432477,,,,,,,,,,0.000000000,1703862877.873603582,-0.016159257,3.039298419,-0.050399594,-0.996036947,-0.072331734,0.145811791,-0.011771419,2.658539534,0.704102874,0.814328730
1706626565.437629,,,,,,,,,,0.000000000,1703862877.873659372,-0.016148673,3.038990920,-0.050553203,-0.996029675,-0.072323009,0.145797366,-0.011776904,2.658540010,0.704100490,0.814327419
1706626565.442881,,,,,,,,,,0.000000000,1703862877.883556128,-0.015017420,3.038560861,-0.050815701,-0.996065736,-0.071731828,0.144556428,-0.011197586,2.658508062,0.704115510,0.814344168
1706626565.452835,,,,,,,,,,0.000000000,1703862877.894236565,-0.014726988,3.039080929,-0.050568540,-0.996088088,-0.071623079,0.144317170,-0.011028245,2.658535719,0.704081774,0.814339399
1706626565.457857,,,,,,,,,,0.000000000,1703862877.894325733,-0.015029998,3.040762686,-0.049717538,-0.996114016,-0.071842127,0.144753855,-0.011129781,2.658530235,0.704098403,0.814313114
1706626565.463068,,,,,,,,,,0.000000000,1703862877.903657198,-0.015098253,3.040167635,-0.050011776,-0.996101260,-0.071805768,0.144691015,-0.011183576,2.658528566,0.704066992,0.814301372
1706626565.472392,,,,,,,,,,0.000000000,1703862877.913568020,-0.015493547,3.041701700,-0.049232822,-0.996135056,-0.071853422,0.144789482,-0.011327793,2.658541441,0.704083383,0.814282656
1706626565.481995,,,,,,,,,,0.000000000,1703862877.923923969,-0.015467062,3.039757307,-0.050201669,-0.996083438,-0.071889430,0.144882597,-0.011386790,2.658527613,0.704101443,0.814329803
1706626565.486552,,,,,,,,,,0.000000000,1703862877.924149752,-0.014892863,3.039799563,-0.050203510,-0.996098638,-0.071722306,0.144517004,-0.011090134,2.658511639,0.704106987,0.814333677
1706626565.491282,1395.000000000,1703862877.613573790,0.000000000,0.000000000,0.000000000,0.000000000,3.073505402,0.713112354,0.841489434,,,,,,,,,,,,
1706626565.493493,,,,,,,,,,0.000000000,1703862877.933766603,-0.014141608,3.039213581,-0.050526738,-0.996113002,-0.071352296,0.143741724,-0.010717426,2.658499956,0.704085112,0.814328849
1706626565.500895,,,,,,,,,,0.000000000,1703862877.943711042,-0.014525655,3.039213808,-0.050512996,-0.996113718,-0.071323067,0.143702912,-0.010907705,2.658483744,0.704110682,0.814360678
1706626565.510190,,,,,,,,,,0.000000000,1703862877.953884602,-0.014317770,3.038383379,-0.050933763,-0.996090889,-0.071353070,0.143761421,-0.010835277,2.658487082,0.704086602,0.814371347
1706626565.520059,,,,,,,,,,0.000000000,1703862877.963642120,-0.014401590,3.039938323,-0.050157063,-0.996135175,-0.071289055,0.143620316,-0.010818006,2.658477783,0.704096198,0.814319313
1706626565.529759,,,,,,,,,,0.000000000,1703862877.973564863,-0.014451299,3.038646707,-0.050796654,-0.996089876,-0.071456075,0.143972316,-0.010897740,2.658500195,0.704087853,0.814349711
1706626565.532125,,,,,,,,,,0.000000000,1703862877.973896742,-0.015651622,3.039701073,-0.050221186,-0.996070445,-0.072038829,0.145192737,-0.011488512,2.658517122,0.704115152,0.814325869
1706626565.539411,,,,,,,,,,0.000000000,1703862877.983577490,-0.014976209,3.040555108,-0.049824089,-0.996116757,-0.071733333,0.144534997,-0.011104996,2.658493996,0.704099238,0.814306676
1706626565.541524,,,,,,,,,,0.000000000,1703862877.983717680,-0.015157163,3.040455154,-0.049865693,-0.996103585,-0.071872555,0.144824889,-0.011205930,2.658495188,0.704098284,0.814305067
1706626565.549989,,,,,,,,,,0.000000000,1703862877.993680477,-0.015314604,3.038336549,-0.050915495,-0.996052265,-0.071823873,0.144759276,-0.011358794,2.658512115,0.704097807,0.814352453
1706626565.555288,1396.000000000,1703862877.613631964,0.000000000,0.000000000,0.000000000,0.000000000,3.073505402,0.713112354,0.841489434,,,,,,,,,,,,
1706626565.560437,,,,,,,,,,0.000000000,1703862878.003782272,-0.015253648,3.039222674,-0.050472029,-0.996047020,-0.072214276,0.145529933,-0.011316062,2.658529282,0.704105198,0.814336836
1706626565.563315,,,,,,,,,,0.000000000,1703862878.004064560,-0.014256186,3.038824082,-0.050714634,-0.996089935,-0.071528718,0.144106096,-0.010797624,2.658500910,0.704097033,0.814351141
1706626565.570617,,,,,,,,,,0.000000000,1703862878.013721466,-0.015032613,3.038848898,-0.050672442,-0.996077836,-0.071667291,0.144424386,-0.011191476,2.658525467,0.704104483,0.814359903
1706626565.580334,,,,,,,,,,0.000000000,1703862878.023933411,-0.014492062,3.038441139,-0.050896052,-0.996074677,-0.071591720,0.144249050,-0.010932427,2.658510447,0.704111516,0.814349771
1706626565.583223,,,,,,,,,,0.000000000,1703862878.024240017,-0.014972733,3.039847355,-0.050175548,-0.996091545,-0.071833819,0.144744479,-0.011133905,2.658516169,0.704122126,0.814320743
1706626565.589943,,,,,,,,,,0.000000000,1703862878.033646822,-0.014665199,3.038256295,-0.050982092,-0.996071219,-0.071564093,0.144204657,-0.011024135,2.658496857,0.704102159,0.814343333
1706626565.592455,,,,,,,,,,0.000000000,1703862878.033884048,-0.015100188,3.039399918,-0.050390836,-0.996061265,-0.072087973,0.145266386,-0.011226599,2.658527374,0.704116046,0.814334393
1706626565.599942,1397.000000000,1703862877.623557329,0.000000000,0.000000000,0.000000000,0.000000000,3.073505402,0.713112354,0.841489434,,,,,,,,,,,,
1706626565.604919,,,,,,,,,,0.000000000,1703862878.043830633,-0.014766981,3.038975920,-0.050620791,-0.996094406,-0.071495213,0.144063674,-0.011045506,2.658499002,0.704080284,0.814332783
1706626565.611205,,,,,,,,,,0.000000000,1703862878.054142237,-0.014584206,3.040784949,-0.049728181,-0.996151865,-0.071345873,0.143734524,-0.010881620,2.658501863,0.704102695,0.814299464
1706626565.614077,,,,,,,,,,0.000000000,1703862878.054296255,-0.014710809,3.039691710,-0.050264262,-0.996099174,-0.071687020,0.144437965,-0.011001349,2.658500671,0.704070628,0.814290941
1706626565.620185,,,,,,,,,,0.000000000,1703862878.063739777,-0.014402948,3.040777098,-0.049737133,-0.996142089,-0.071487717,0.144010166,-0.010798478,2.658482075,0.704082966,0.814263344
1706626565.630206,,,,,,,,,,0.000000000,1703862878.074120283,-0.015169869,3.039921304,-0.050131988,-0.996095717,-0.071791247,0.144668316,-0.011227516,2.658524513,0.704088092,0.814313114
1706626565.640394,,,,,,,,,,0.000000000,1703862878.083612442,-0.014150920,3.040651519,-0.049808316,-0.996136308,-0.071536757,0.144097125,-0.010679612,2.658500910,0.704087794,0.814307332
1706626565.642891,,,,,,,,,,0.000000000,1703862878.083686352,-0.014628344,3.039892930,-0.050167084,-0.996104658,-0.071684971,0.144427403,-0.010952801,2.658514261,0.704085529,0.814326942
1706626565.649922,,,,,,,,,,0.000000000,1703862878.093713760,-0.013829721,3.039362967,-0.050465573,-0.996130824,-0.071172774,0.143363555,-0.010547225,2.658491373,0.704079032,0.814339161
1706626565.660341,,,,,,,,,,0.000000000,1703862878.104016781,-0.014100004,3.039457819,-0.050407700,-0.996126652,-0.071251608,0.143534786,-0.010682778,2.658492565,0.704076290,0.814342439
1706626565.662669,,,,,,,,,,0.000000000,1703862878.104463577,-0.014747308,3.038930478,-0.050641805,-0.996078193,-0.071705535,0.144485454,-0.011048013,2.658526182,0.704058111,0.814349174
1706626565.668138,1398.000000000,1703862877.623625040,0.000000000,0.000000000,0.000000000,0.000000000,3.073505402,0.713112354,0.841489434,,,,,,,,,,,,
1706626565.671626,,,,,,,,,,0.000000000,1703862878.113940001,-0.014857528,3.038537700,-0.050832033,-0.996059000,-0.071825415,0.144736268,-0.011123360,2.658517361,0.704060853,0.814366758
1706626565.681461,,,,,,,,,,0.000000000,1703862878.123632431,-0.191168475,-0.048415527,-0.993621588,0.029119549,0.093999133,-0.106086533,0.055067807,2.655110121,0.702058375,0.846187174
1706626565.684071,,,,,,,,,,0.000000000,1703862878.124012232,-0.014221466,3.037118180,-0.051565811,-0.996048510,-0.071490489,0.144046048,-0.010839792,2.658509970,0.704075992,0.814394653
1706626565.690060,,,,,,,,,,0.000000000,1703862878.133734226,-0.014594324,3.038345007,-0.050940167,-0.996071637,-0.071594313,0.144260648,-0.010987091,2.658512831,0.704098105,0.814391136
1706626565.692399,,,,,,,,,,0.000000000,1703862878.133983374,-0.014184807,3.038908706,-0.050677568,-0.996108770,-0.071299002,0.143640252,-0.010747246,2.658503771,0.704096377,0.814379275
1706626565.700295,,,,,,,,,,0.000000000,1703862878.143756151,-0.013988610,3.039101005,-0.050588083,-0.996108830,-0.071378030,0.143786677,-0.010646382,2.658521175,0.704093874,0.814366996
1706626565.710404,,,,,,,,,,0.000000000,1703862878.153701544,-0.191818302,-0.048005430,-0.993594468,0.028934915,0.094332501,-0.106143998,0.055083182,2.655088425,0.702110887,0.846213281
1706626565.713640,,,,,,,,,,0.000000000,1703862878.153848886,-0.187327903,0.037611422,-0.993990183,-0.013479147,0.094408952,-0.111572684,0.053747192,2.654595375,0.700697958,0.845714986
1706626565.720655,,,,,,,,,,0.000000000,1703862878.163828850,-0.013890507,3.037432967,-0.051421847,-0.996062934,-0.071421213,0.143886096,-0.010659610,2.658493519,0.704087853,0.814392745
1706626565.729852,,,,,,,,,,0.000000000,1703862878.173580647,-0.013431612,3.037488015,-0.051413670,-0.996083379,-0.071176276,0.143369580,-0.010415833,2.658480644,0.704091430,0.814389050
1706626565.732284,,,,,,,,,,0.000000000,1703862878.173790693,-0.191450691,-0.047485451,-0.993629396,0.028650733,0.094169185,-0.105792071,0.054880407,2.655101538,0.702122271,0.846231103
1706626565.740022,,,,,,,,,,0.000000000,1703862878.183775663,-0.013635638,3.038425255,-0.050940283,-0.996112049,-0.071106039,0.143229405,-0.010480518,2.658491611,0.704084575,0.814364374
1706626565.746682,1399.000000000,1703862877.623732805,0.000000000,0.000000000,0.000000000,0.000000000,3.073505402,0.713112354,0.841489434,,,,,,,,,,,,
1706626565.749645,,,,,,,,,,0.000000000,1703862878.193554640,-0.013635659,3.037901060,-0.051200792,-0.996094823,-0.071156994,0.143337236,-0.010501925,2.658502102,0.704086304,0.814387500
1706626565.751904,,,,,,,,,,0.000000000,1703862878.193639517,-0.013981820,3.039547498,-0.050366480,-0.996123672,-0.071330726,0.143686584,-0.010624545,2.658517122,0.704084992,0.814353287
1706626565.759449,,,,,,,,,,0.000000000,1703862878.203608990,-0.013994359,3.039297818,-0.050491493,-0.996124804,-0.071225286,0.143478191,-0.010634433,2.658512115,0.704072893,0.814351141
1706626565.761583,,,,,,,,,,0.000000000,1703862878.203781128,-0.190613905,0.032506918,-0.993965685,-0.011024817,0.095884137,-0.107895132,0.052125201,2.654564619,0.700621068,0.845624328
1706626565.771451,,,,,,,,,,0.000000000,1703862878.213723421,-0.015751077,3.039616367,-0.050259352,-0.996065617,-0.072070234,0.145261903,-0.011542831,2.658558607,0.704071045,0.814332366
1706626565.774998,,,,,,,,,,0.000000000,1703862878.213876724,-0.014841170,3.041228109,-0.049493216,-0.996129990,-0.071791932,0.144638305,-0.011016158,2.658554077,0.704045773,0.814284623
1706626565.781669,1400.000000000,1703862877.633538246,0.000000000,0.000000000,0.000000000,0.000000000,3.073505402,0.713112354,0.841489434,,,,,,,,,,,,
1706626565.784126,,,,,,,,,,0.000000000,1703862878.223887920,-0.192552689,0.025381298,-0.993892431,-0.007403946,0.096663237,-0.108439201,0.052719634,2.654556513,0.700746357,0.845706582
1706626565.789868,,,,,,,,,,0.000000000,1703862878.233580828,-0.014582595,3.040715676,-0.049758442,-0.996121883,-0.071738690,0.144523884,-0.010902927,2.658539772,0.704023063,0.814302325
1706626565.794135,,,,,,,,,,0.000000000,1703862878.233703136,-0.188418395,-0.066325321,-0.993471205,0.037918471,0.092147924,-0.105449441,0.055552460,2.655213594,0.702441037,0.846673310
1706626565.800017,,,,,,,,,,0.000000000,1703862878.243874788,0.023595289,3.093172887,-0.024815507,-0.998121083,-0.055040278,0.109604813,0.010450334,2.657779455,0.703387499,0.812739253
1706626565.802985,,,,,,,,,,0.000000000,1703862878.244054079,0.023548152,3.092782857,-0.025010059,-0.998110235,-0.055155557,0.109832848,0.010413224,2.657788992,0.703394055,0.812759340
1706626565.810792,,,,,,,,,,0.000000000,1703862878.253856421,-0.014449661,3.039268286,-0.050483961,-0.996084750,-0.071750432,0.144556454,-0.010889461,2.658544302,0.704029500,0.814346731
1706626565.820858,,,,,,,,,,0.000000000,1703862878.263643026,-0.014705175,3.039940057,-0.050138153,-0.996088266,-0.071926005,0.144914781,-0.011001595,2.658551931,0.704045355,0.814336538
1706626565.829773,,,,,,,,,,0.000000000,1703862878.273649931,-0.188011750,-0.066312641,-0.993483901,0.037913647,0.091941468,-0.105699687,0.055670489,2.655210018,0.702457190,0.846671581
1706626565.832161,,,,,,,,,,0.000000000,1703862878.274168253,-0.015232154,3.039966630,-0.050103500,-0.996073425,-0.072113112,0.145317262,-0.011273167,2.658555746,0.704071283,0.814328671
1706626565.840575,,,,,,,,,,0.000000000,1703862878.283674002,-0.014779176,3.040062853,-0.050076094,-0.996102810,-0.071763158,0.144590261,-0.011025907,2.658547640,0.704038084,0.814311802
1706626565.845636,1401.000000000,1703862877.633604527,0.000000000,0.000000000,0.000000000,0.000000000,3.073505402,0.713112354,0.841489434,,,,,,,,,,,,
1706626565.848118,,,,,,,,,,0.000000000,1703862878.283821344,-0.015018812,3.040538926,-0.049829006,-0.996105969,-0.071875192,0.144822180,-0.011133949,2.658551455,0.704050958,0.814303041
1706626565.850596,,,,,,,,,,0.000000000,1703862878.293828726,-0.015020588,3.038248880,-0.050969563,-0.996048808,-0.071854137,0.144805694,-0.011216705,2.658550978,0.704051375,0.814351976
1706626565.859717,,,,,,,,,,0.000000000,1703862878.303632259,-0.014483077,3.039416367,-0.050410930,-0.996101081,-0.071573474,0.144201267,-0.010891837,2.658552408,0.704061925,0.814331412
1706626565.862611,,,,,,,,,,0.000000000,1703862878.304035425,-0.188961409,0.035301459,-0.993991017,-0.012394701,0.095144182,-0.109254548,0.052685522,2.654621124,0.700663149,0.845665991
1706626565.870582,,,,,,,,,,0.000000000,1703862878.313776255,-0.191601277,0.025982625,-0.993927598,-0.007714945,0.096207462,-0.108731860,0.052844621,2.654572725,0.700819314,0.845735312
1706626565.880222,,,,,,,,,,0.000000000,1703862878.323875904,-0.013893934,3.038764830,-0.050758533,-0.996097803,-0.071415745,0.143861079,-0.010613117,2.658539057,0.704076231,0.814339817
1706626565.882617,,,,,,,,,,0.000000000,1703862878.324021101,-0.013157882,3.039380268,-0.050480466,-0.996127844,-0.071251363,0.143486480,-0.010215108,2.658538342,0.704046786,0.814342082
1706626565.889676,,,,,,,,,,0.000000000,1703862878.333730936,-0.015198362,3.040054341,-0.050063442,-0.996091068,-0.071902804,0.144892253,-0.011242538,2.658574581,0.704061389,0.814309597
1706626565.900344,,,,,,,,,,0.000000000,1703862878.343473911,-0.014661081,3.040337879,-0.049944147,-0.996114850,-0.071699753,0.144453860,-0.010953818,2.658552647,0.704033315,0.814294040
1706626565.903326,,,,,,,,,,0.000000000,1703862878.343523741,-0.192717172,0.023511775,-0.993901074,-0.006488868,0.096694395,-0.108056419,0.052618351,2.654550791,0.700778008,0.845715702
1706626565.909521,1402.000000000,1703862878.244054079,0.000000000,0.000000000,0.000000000,0.000000000,3.073505402,0.713112354,0.841489434,,,,,,,,,,,,
1706626565.912719,,,,,,,,,,0.000000000,1703862878.353460550,-0.191541661,0.025120749,-0.993918478,-0.007260681,0.096157148,-0.109305740,0.053171802,2.654544353,0.700791717,0.845704675
1706626565.921710,,,,,,,,,,0.000000000,1703862878.363460064,-0.192022648,0.024616230,-0.993920743,-0.007039087,0.096379630,-0.108424005,0.052753672,2.654522896,0.700789332,0.845688641
1706626565.929625,,,,,,,,,,0.000000000,1703862878.373446703,-0.192122544,0.024533027,-0.993937016,-0.007032922,0.096424319,-0.107637170,0.052365787,2.654564142,0.700843573,0.845735252
1706626565.932117,,,,,,,,,,0.000000000,1703862878.373470306,-0.192706367,0.024390432,-0.993918478,-0.006962247,0.096709527,-0.107302972,0.052201536,2.654555559,0.700862169,0.845737219
1706626565.939678,,,,,,,,,,0.000000000,1703862878.383530617,-0.191925194,0.026482976,-0.993918717,-0.007969981,0.096380368,-0.108413466,0.052659351,2.654558659,0.700864911,0.845751762
1706626565.942057,,,,,,,,,,0.000000000,1703862878.383548021,-0.191662630,0.025741750,-0.993912995,-0.007570613,0.096233390,-0.109208397,0.053092476,2.654573441,0.700836122,0.845742285
1706626565.949514,,,,,,,,,,0.000000000,1703862878.393375874,-0.192300676,0.025272440,-0.993906438,-0.007359790,0.096534915,-0.108377224,0.052696332,2.654582024,0.700840175,0.845743895
1706626565.951705,,,,,,,,,,0.000000000,1703862878.393409967,-0.191095509,0.025825862,-0.993914485,-0.007583135,0.095957391,-0.110146975,0.053559985,2.654582739,0.700818539,0.845723689
1706626565.960077,,,,,,,,,,0.000000000,1703862878.403646946,-0.191864432,0.025378687,-0.993937790,-0.007444716,0.096319400,-0.107959833,0.052487660,2.654594660,0.700851023,0.845750034
1706626565.970812,,,,,,,,,,0.000000000,1703862878.413536072,-0.191192745,0.024896712,-0.993940234,-0.007166987,0.095977224,-0.109140060,0.053103305,2.654597759,0.700835109,0.845732808
1706626565.982197,1403.000000000,1703862878.253666639,0.000000000,0.000000000,0.000000000,0.000000000,3.073505402,0.713112354,0.841489434,,,,,,,,,,,,
1706626565.985126,,,,,,,,,,0.000000000,1703862878.423573732,-0.192150686,0.023276517,-0.993929267,-0.006388161,0.096406683,-0.108042647,0.052627631,2.654610634,0.700791180,0.845716000
1706626565.990116,,,,,,,,,,0.000000000,1703862878.433892727,-0.192326278,0.024824430,-0.993923664,-0.007167313,0.096533544,-0.107737691,0.052399911,2.654560566,0.700808644,0.845719337
1706626566.000356,,,,,,,,,,0.000000000,1703862878.443714142,-0.191494533,0.024313030,-0.993931115,-0.006874224,0.096111275,-0.109021939,0.053070001,2.654570818,0.700808406,0.845709205
1706626566.010002,,,,,,,,,,0.000000000,1703862878.453644276,-0.189566182,0.034026461,-0.993983209,-0.011767118,0.095408261,-0.108772278,0.052499812,2.654619932,0.700642109,0.845628440
1706626566.012772,,,,,,,,,,0.000000000,1703862878.453777075,-0.191709020,0.023440385,-0.993930638,-0.006446868,0.096193872,-0.108767133,0.052983496,2.654572725,0.700769782,0.845686972
1706626566.020337,,,,,,,,,,0.000000000,1703862878.463725805,-0.192053718,0.024900642,-0.993930042,-0.007201144,0.096400961,-0.107976467,0.052517284,2.654567480,0.700797975,0.845707297
1706626566.029956,1404.000000000,1703862878.253856421,0.000000000,0.000000000,0.000000000,0.000000000,3.073505402,0.713112354,0.841489434,,,,,,,,,,,,
1706626566.032432,,,,,,,,,,0.000000000,1703862878.473897696,-0.191672894,0.024087027,-0.993922293,-0.006754960,0.096194044,-0.109063695,0.053100079,2.654596806,0.700818539,0.845728815
1706626566.039965,,,,,,,,,,0.000000000,1703862878.483706236,-0.191265115,0.024980791,-0.993935049,-0.007204286,0.096015595,-0.109191674,0.053124279,2.654595852,0.700804174,0.845718563
1706626566.042417,,,,,,,,,,0.000000000,1703862878.483772516,-0.191418292,0.026400170,-0.993906140,-0.007875863,0.096131817,-0.109806461,0.053360246,2.654585838,0.700818419,0.845723510
1706626566.050954,,,,,,,,,,0.000000000,1703862878.493693590,-0.190872603,0.025693457,-0.993928075,-0.007528090,0.095842734,-0.110052841,0.053521566,2.654599428,0.700812519,0.845724821
1706626566.053418,,,,,,,,,,0.000000000,1703862878.493771315,-0.190611565,0.025479440,-0.993935049,-0.007418122,0.095708139,-0.110280865,0.053647477,2.654611826,0.700811982,0.845724344
1706626566.059873,,,,,,,,,,0.000000000,1703862878.503799200,-0.191655432,0.025586714,-0.993951082,-0.007561485,0.096220404,-0.107800889,0.052400518,2.654592752,0.700866699,0.845748663
1706626566.071256,,,,,,,,,,0.000000000,1703862878.513777494,-0.191158119,0.027550097,-0.993941545,-0.008504828,0.096028775,-0.108760341,0.052787546,2.654579401,0.700877130,0.845749795
1706626566.077523,1405.000000000,1703862878.263581038,0.000000000,0.000000000,0.000000000,0.000000000,3.073505402,0.713112354,0.841489434,,,,,,,,,,,,
1706626566.080686,,,,,,,,,,0.000000000,1703862878.523806095,-0.192759460,0.024720537,-0.993922412,-0.007139070,0.096743472,-0.107008933,0.052038983,2.654585123,0.700835109,0.845728099
1706626566.090448,,,,,,,,,,0.000000000,1703862878.534148932,-0.191794856,0.025349538,-0.993923426,-0.007399755,0.096286550,-0.108632501,0.052823972,2.654591799,0.700836003,0.845737696
1706626566.100064,,,,,,,,,,0.000000000,1703862878.543745279,-0.191630996,0.026399749,-0.993920684,-0.007914251,0.096233845,-0.108880836,0.052898321,2.654590845,0.700831294,0.845724344
1706626566.110017,,,,,,,,,,0.000000000,1703862878.553732634,-0.190442325,0.027966761,-0.993929982,-0.008653606,0.095691174,-0.110393346,0.053585924,2.654590845,0.700867295,0.845724523
1706626566.113317,,,,,,,,,,0.000000000,1703862878.553923368,-0.191817574,0.025829226,-0.993922412,-0.007640862,0.096310243,-0.108562960,0.052766114,2.654571056,0.700874507,0.845723212
1706626566.121991,,,,,,,,,,0.000000000,1703862878.563672543,-0.191168604,0.025625147,-0.993922830,-0.007501203,0.095986784,-0.109733132,0.053363293,2.654581070,0.700872898,0.845737576
1706626566.124586,,,,,,,,,,0.000000000,1703862878.563821077,-0.191492928,0.025022692,-0.993941784,-0.007250799,0.096127503,-0.108525642,0.052789263,2.654575586,0.700894713,0.845742047
1706626566.129906,,,,,,,,,,0.000000000,1703862878.573738098,-0.192080693,0.022676045,-0.993923604,-0.006071868,0.096357346,-0.108453580,0.052861366,2.654592752,0.700823784,0.845714629
1706626566.132440,,,,,,,,,,0.000000000,1703862878.573919058,-0.192402108,0.022876679,-0.993906856,-0.006161124,0.096522465,-0.108486856,0.052865576,2.654566765,0.700849891,0.845724285
1706626566.139963,,,,,,,,,,0.000000000,1703862878.583805799,-0.191727002,0.021884417,-0.993920505,-0.005647927,0.096163034,-0.109290857,0.053318441,2.654573917,0.700831532,0.845700920
1706626566.149947,,,,,,,,,,0.000000000,1703862878.593679667,-0.192278532,0.020743036,-0.993907630,-0.005084034,0.096405670,-0.108905112,0.053177331,2.654594660,0.700820804,0.845689237
1706626566.152359,,,,,,,,,,0.000000000,1703862878.593882322,-0.192776431,0.020746566,-0.993912697,-0.005124761,0.096650384,-0.107814462,0.052631292,2.654585600,0.700842977,0.845712185
1706626566.159663,1406.000000000,1703862878.263643026,0.000000000,0.000000000,0.000000000,0.000000000,3.073505402,0.713112354,0.841489434,,,,,,,,,,,,
1706626566.162557,,,,,,,,,,0.000000000,1703862878.603693724,-0.192997564,0.020800149,-0.993927479,-0.005192475,0.096759155,-0.106840392,0.052142914,2.654574156,0.700865448,0.845717847
1706626566.170150,,,,,,,,,,0.000000000,1703862878.613877296,-0.192966537,0.019733892,-0.993919611,-0.004641175,0.096717000,-0.107300442,0.052423354,2.654577255,0.700834692,0.845697820
1706626566.180225,,,,,,,,,,0.000000000,1703862878.623828411,-0.193327344,0.021261785,-0.993902087,-0.005397300,0.096935935,-0.107163484,0.052278552,2.654574156,0.700890422,0.845733643
1706626566.189890,,,,,,,,,,0.000000000,1703862878.633712530,-0.192622594,0.021783463,-0.993918657,-0.005646809,0.096601069,-0.107761658,0.052556168,2.654566526,0.700889826,0.845719457
1706626566.200379,,,,,,,,,,0.000000000,1703862878.643827438,-0.192679429,0.022138272,-0.993926704,-0.005843280,0.096637323,-0.107312585,0.052315399,2.654564381,0.700898826,0.845707178
1706626566.210519,,,,,,,,,,0.000000000,1703862878.654137135,-0.190635507,0.025327898,-0.993935347,-0.007343641,0.095715858,-0.110249504,0.053638931,2.654581785,0.700913787,0.845742822
1706626566.220546,,,,,,,,,,0.000000000,1703862878.663704157,-0.191786806,0.024963122,-0.993922114,-0.007202164,0.096272781,-0.108752570,0.052902319,2.654559374,0.700908244,0.845726788
1706626566.223788,,,,,,,,,,0.000000000,1703862878.663792849,-0.192407874,0.023393303,-0.993924499,-0.006453618,0.096536584,-0.107742784,0.052470818,2.654564381,0.700924158,0.845752835
1706626566.228810,1407.000000000,1703862878.273649931,0.000000000,0.000000000,0.000000000,0.000000000,3.073505402,0.713112354,0.841489434,,,,,,,,,,,,
1706626566.233054,,,,,,,,,,0.000000000,1703862878.673824310,-0.192195067,0.023443067,-0.993923306,-0.006463628,0.096433528,-0.108168846,0.052681945,2.654570580,0.700892031,0.845744371
1706626566.240054,,,,,,,,,,0.000000000,1703862878.683635950,-0.190421181,0.024682745,-0.993937910,-0.007011472,0.095593341,-0.110616701,0.053854167,2.654584408,0.700885296,0.845724881
1706626566.242507,,,,,,,,,,0.000000000,1703862878.683761358,-0.191326120,0.022047193,-0.993947983,-0.005756000,0.095967211,-0.108955908,0.053147398,2.654597998,0.700896978,0.845732629
1706626566.249870,,,,,,,,,,0.000000000,1703862878.693765640,-0.191591506,0.023772555,-0.993923903,-0.006594916,0.096145667,-0.109188878,0.053178109,2.654574871,0.700889170,0.845714986
1706626566.252188,,,,,,,,,,0.000000000,1703862878.693891287,-0.192795645,0.023255979,-0.993908942,-0.006379372,0.096725360,-0.107647557,0.052426878,2.654556274,0.700908899,0.845717728
1706626566.259958,,,,,,,,,,0.000000000,1703862878.703820229,-0.192394529,0.022381641,-0.993916214,-0.005929025,0.096504770,-0.108202859,0.052748393,2.654581785,0.700868547,0.845698118
1706626566.262235,,,,,,,,,,0.000000000,1703862878.703939915,-0.192433980,0.021698306,-0.993927240,-0.005608554,0.096505165,-0.107784197,0.052572984,2.654562950,0.700870335,0.845692694
1706626566.266603,1408.000000000,1703862878.273906231,0.000000000,0.000000000,0.000000000,0.000000000,3.073505402,0.713112354,0.841489434,,,,,,,,,,,,
1706626566.270169,,,,,,,,,,0.000000000,1703862878.713640928,-0.193429386,0.022005816,-0.993880928,-0.005738049,0.097007632,-0.107704142,0.052510340,2.654547930,0.700875223,0.845715582
1706626566.273199,,,,,,,,,,0.000000000,1703862878.713742733,-0.192148488,0.021174638,-0.993945777,-0.005362344,0.096349195,-0.107654770,0.052536175,2.654568911,0.700861871,0.845720232
1706626566.280190,,,,,,,,,,0.000000000,1703862878.723727226,-0.192813362,0.021867592,-0.993919551,-0.005702376,0.096696950,-0.107369258,0.052355565,2.654535294,0.700860500,0.845704019
1706626566.282694,,,,,,,,,,0.000000000,1703862878.724148035,-0.192398616,0.022814334,-0.993903279,-0.006123191,0.096519522,-0.108632851,0.052941162,2.654545784,0.700848937,0.845695555
1706626566.291806,,,,,,,,,,0.000000000,1703862878.733706236,-0.192305737,0.022891208,-0.993930101,-0.006205275,0.096472763,-0.107776236,0.052512523,2.654543161,0.700854957,0.845702112
1706626566.294277,,,,,,,,,,0.000000000,1703862878.733911276,-0.191946807,0.023931974,-0.993934751,-0.006715734,0.096322879,-0.108120734,0.052636579,2.654570818,0.700878084,0.845734119
1706626566.299729,,,,,,,,,,0.000000000,1703862878.743896008,-0.191356897,0.024457806,-0.993950486,-0.006974298,0.096044958,-0.108515643,0.052812621,2.654566765,0.700868309,0.845729351
1706626566.302174,,,,,,,,,,0.000000000,1703862878.744119406,-0.191651651,0.025314871,-0.993931174,-0.007387870,0.096214376,-0.108603666,0.052812587,2.654558182,0.700883865,0.845740199
1706626566.311320,,,,,,,,,,0.000000000,1703862878.754058838,-0.191389716,0.024806983,-0.993941784,-0.007136025,0.096071303,-0.108742586,0.052908354,2.654555559,0.700853348,0.845737159
1706626566.321443,,,,,,,,,,0.000000000,1703862878.763943911,-0.191445950,0.024798397,-0.993942380,-0.007136274,0.096098557,-0.108616219,0.052845467,2.654572010,0.700852215,0.845726728
1706626566.330009,,,,,,,,,,0.000000000,1703862878.773922443,-0.191903791,0.024120791,-0.993912756,-0.006768197,0.096309468,-0.109004435,0.053067017,2.654559374,0.700865149,0.845725060
1706626566.340013,,,,,,,,,,0.000000000,1703862878.783539295,-0.190783288,0.025458223,-0.993931174,-0.007410138,0.095792331,-0.110126908,0.053570446,2.654574871,0.700877964,0.845725715
1706626566.342535,,,,,,,,,,0.000000000,1703862878.783619881,-0.191662546,0.025894230,-0.993920565,-0.007661222,0.096236214,-0.108900189,0.052931972,2.654568434,0.700872481,0.845741987
1706626566.346641,1409.000000000,1703862878.274168253,0.000000000,0.000000000,0.000000000,0.000000000,3.073505402,0.713112354,0.841489434,,,,,,,,,,,,
1706626566.349755,,,,,,,,,,0.000000000,1703862878.793579817,-0.012958469,3.038125168,-0.051111709,-0.996088922,-0.071351565,0.143690162,-0.010165712,2.658541679,0.704123259,0.814362764
1706626566.354144,,,,,,,,,,0.000000000,1703862878.793792248,-0.190919902,0.025882280,-0.993950427,-0.007666099,0.095867664,-0.109103745,0.053040419,2.654570103,0.700881124,0.845731437
1706626566.360183,,,,,,,,,,0.000000000,1703862878.803783178,-0.190585202,0.027020789,-0.993953466,-0.008226333,0.095732808,-0.109414463,0.053143375,2.654555798,0.700878918,0.845749855
1706626566.370215,,,,,,,,,,0.000000000,1703862878.813554287,-0.190685680,0.026100124,-0.993943334,-0.007749832,0.095759563,-0.109751850,0.053354193,2.654561758,0.700880051,0.845758855
1706626566.372856,,,,,,,,,,0.000000000,1703862878.813616991,-0.190876924,0.024667832,-0.993942738,-0.007038353,0.095815942,-0.109633608,0.053362321,2.654590130,0.700818896,0.845734000
1706626566.379876,,,,,,,,,,0.000000000,1703862878.823728323,-0.190569073,0.026225174,-0.993948102,-0.007814665,0.095705010,-0.109763750,0.053355187,2.654565573,0.700843036,0.845761597
1706626566.382658,,,,,,,,,,0.000000000,1703862878.824203730,-0.190908607,0.025264335,-0.993949175,-0.007352005,0.095846213,-0.109256147,0.053145874,2.654577017,0.700803041,0.845731974
1706626566.386744,1410.000000000,1703862878.283674002,0.000000000,0.000000000,0.000000000,0.000000000,3.073505402,0.713112354,0.841489434,,,,,,,,,,,,
1706626566.390058,,,,,,,,,,0.000000000,1703862878.833701849,-0.191328598,0.025533171,-0.993936181,-0.007488086,0.096060954,-0.108961655,0.052982882,2.654572725,0.700800359,0.845736325
1706626566.394707,,,,,,,,,,0.000000000,1703862878.833769083,-0.014189284,3.039343551,-0.050458543,-0.996104598,-0.071513534,0.144066526,-0.010744728,2.658543348,0.704044759,0.814340949
1706626566.401114,,,,,,,,,,0.000000000,1703862878.843549013,-0.014109111,3.039948818,-0.050158545,-0.996110320,-0.071652599,0.144335103,-0.010689892,2.658543110,0.704032063,0.814326406
1706626566.404237,,,,,,,,,,0.000000000,1703862878.843630552,-0.187390824,-0.064110600,-0.993542194,0.036824677,0.091685995,-0.106142292,0.055780739,2.655213594,0.702419698,0.846702576
1706626566.410539,,,,,,,,,,0.000000000,1703862878.853655338,-0.015300790,3.041871366,-0.049154069,-0.996131599,-0.071969561,0.145011016,-0.011231140,2.658554792,0.704009593,0.814299285
1706626566.414751,,,,,,,,,,0.000000000,1703862878.853899479,-0.014049392,3.040781284,-0.049748007,-0.996144176,-0.071478888,0.143974364,-0.010621352,2.658543110,0.703984082,0.814326644
1706626566.421527,,,,,,,,,,0.000000000,1703862878.863596916,-0.015135717,3.040673802,-0.049754739,-0.996090829,-0.072126515,0.145331247,-0.011199989,2.658571243,0.703951955,0.814314544
1706626566.424183,,,,,,,,,,0.000000000,1703862878.863742828,-0.188173233,-0.065407195,-0.993512392,0.037435971,0.092059873,-0.105006781,0.055286877,2.655232430,0.702325106,0.846657813
1706626566.432771,,,,,,,,,,0.000000000,1703862878.873789549,-0.015266578,3.040653939,-0.049760669,-0.996095240,-0.072051689,0.145187914,-0.011262311,2.658575058,0.703983545,0.814345241
1706626566.437955,,,,,,,,,,0.000000000,1703862878.873855352,-0.014941400,3.040513636,-0.049844388,-0.996105313,-0.071879283,0.144826719,-0.011096418,2.658557177,0.703968823,0.814332187
1706626566.443157,,,,,,,,,,0.000000000,1703862878.883932829,0.024222153,3.094187927,-0.024324404,-0.998137593,-0.054893546,0.109306992,0.010794746,2.657752037,0.703291118,0.812729537
1706626566.449622,,,,,,,,,,0.000000000,1703862878.893679619,-0.009881536,3.043501569,-0.048510615,-0.995934010,-0.075416461,0.151645262,-0.008634293,2.658609152,0.704207778,0.814179480
1706626566.451821,,,,,,,,,,0.000000000,1703862878.893748283,-0.014808048,3.038945230,-0.050631836,-0.996075690,-0.071741618,0.144560902,-0.011079643,2.658566475,0.703994274,0.814386368
1706626566.459718,,,,,,,,,,0.000000000,1703862878.903691769,-0.014378328,3.040049880,-0.050098237,-0.996110857,-0.071667716,0.144378188,-0.010821429,2.658541203,0.703977048,0.814364791
1706626566.463495,,,,,,,,,,0.000000000,1703862878.904009581,0.023276222,3.094683657,-0.024054358,-0.998133481,-0.055175193,0.109898281,0.010329137,2.657782793,0.703329563,0.812759399
1706626566.469812,1411.000000000,1703862878.283821344,0.000000000,0.000000000,0.000000000,0.000000000,3.073505402,0.713112354,0.841489434,,,,,,,,,,,,
1706626566.472111,,,,,,,,,,0.000000000,1703862878.913773060,-0.014599123,3.039699259,-0.050262000,-0.996082902,-0.071921736,0.144903394,-0.010957154,2.658544064,0.703975081,0.814370155
1706626566.480160,,,,,,,,,,0.000000000,1703862878.923734665,-0.014370329,3.039598855,-0.050324265,-0.996106863,-0.071563967,0.144174367,-0.010828478,2.658536673,0.704007328,0.814363301
1706626566.482575,,,,,,,,,,0.000000000,1703862878.923810244,-0.014698242,3.040790037,-0.049718935,-0.996134818,-0.071580008,0.144210357,-0.010950063,2.658534527,0.703999162,0.814324260
1706626566.489548,,,,,,,,,,0.000000000,1703862878.933537006,-0.014231011,3.038004895,-0.051119797,-0.996044338,-0.071868360,0.144795653,-0.010832009,2.658550024,0.703995883,0.814369440
1706626566.491819,,,,,,,,,,0.000000000,1703862878.933644772,-0.014912647,3.039413408,-0.050391342,-0.996064484,-0.072057545,0.145195450,-0.011130929,2.658564329,0.704011917,0.814364076
1706626566.500236,,,,,,,,,,0.000000000,1703862878.943722963,-0.014231440,3.039440622,-0.050408363,-0.996104896,-0.071541622,0.144124055,-0.010763702,2.658550024,0.703996658,0.814376831
1706626566.512339,,,,,,,,,,0.000000000,1703862878.953786850,-0.014337122,3.039247139,-0.050499216,-0.996088684,-0.071694039,0.144437631,-0.010831174,2.658533096,0.704004526,0.814366400
1706626566.520529,,,,,,,,,,0.000000000,1703862878.963877439,-0.014674238,3.038534135,-0.050838105,-0.996043861,-0.072042488,0.145162630,-0.011043047,2.658552647,0.703995347,0.814385295
1706626566.525075,1412.000000000,1703862878.843549013,0.000000000,0.000000000,0.000000000,0.000000000,3.073505402,0.713112354,0.841489434,,,,,,,,,,,,
1706626566.536781,,,,,,,,,,0.000000000,1703862878.973738909,-0.014725147,3.039496573,-0.050360799,-0.996093333,-0.071697116,0.144461142,-0.011016067,2.658533812,0.704011381,0.814383209
1706626566.539415,,,,,,,,,,0.000000000,1703862878.973967552,0.022682847,3.093334806,-0.024713077,-0.998111129,-0.055351302,0.110251171,0.009991424,2.657759666,0.703359127,0.812806249
1706626566.541847,,,,,,,,,,0.000000000,1703862878.983836651,-0.015092119,3.039250648,-0.050466720,-0.996065557,-0.071976624,0.145044068,-0.011222351,2.658555508,0.703963876,0.814376354
1706626566.550129,,,,,,,,,,0.000000000,1703862878.993845224,-0.014222986,3.039023696,-0.050616372,-0.996094763,-0.071534872,0.144114566,-0.010774165,2.658535480,0.703974783,0.814383626
1706626566.560605,,,,,,,,,,0.000000000,1703862879.003958464,-0.014498851,3.039431162,-0.050399575,-0.996078968,-0.071885146,0.144827710,-0.010914951,2.658549070,0.703989923,0.814386487
1706626566.570965,,,,,,,,,,0.000000000,1703862879.013772964,-0.014894288,3.039766110,-0.050219148,-0.996091545,-0.071809508,0.144692530,-0.011096451,2.658527613,0.703996420,0.814367831
