__time,/pred_cup_pose/header/header/seq,/pred_cup_pose/header/header/stamp,/pred_cup_pose/pose/orientation/w,/pred_cup_pose/pose/orientation/x,/pred_cup_pose/pose/orientation/y,/pred_cup_pose/pose/orientation/z,/pred_cup_pose/pose/position/x,/pred_cup_pose/pose/position/y,/pred_cup_pose/pose/position/z,/vrpn_mocap/cup/pose/header/header/seq,/vrpn_mocap/cup/pose/header/header/stamp,/vrpn_mocap/cup/pose/pose/orientation/pitch,/vrpn_mocap/cup/pose/pose/orientation/roll,/vrpn_mocap/cup/pose/pose/orientation/w,/vrpn_mocap/cup/pose/pose/orientation/x,/vrpn_mocap/cup/pose/pose/orientation/y,/vrpn_mocap/cup/pose/pose/orientation/yaw,/vrpn_mocap/cup/pose/pose/orientation/z,/vrpn_mocap/cup/pose/pose/position/x,/vrpn_mocap/cup/pose/pose/position/y,/vrpn_mocap/cup/pose/pose/position/z
1706626594.661270,,,,,,,,,,0.000000000,1703862878.483706236,-0.191265115,0.024980791,-0.993935049,-0.007204286,0.096015595,-0.109191674,0.053124279,2.654595852,0.700804174,0.845718563
1706626594.663927,,,,,,,,,,0.000000000,1703862878.483772516,-0.191418292,0.026400170,-0.993906140,-0.007875863,0.096131817,-0.109806461,0.053360246,2.654585838,0.700818419,0.845723510
1706626594.670805,,,,,,,,,,0.000000000,1703862878.493771315,-0.190611565,0.025479440,-0.993935049,-0.007418122,0.095708139,-0.110280865,0.053647477,2.654611826,0.700811982,0.845724344
1706626594.680714,,,,,,,,,,0.000000000,1703862878.503699064,-0.191092405,0.027635522,-0.993933260,-0.008529136,0.096000150,-0.109176313,0.052990790,2.654582977,0.700862586,0.845745206
1706626594.683409,,,,,,,,,,0.000000000,1703862878.503799200,-0.191655432,0.025586714,-0.993951082,-0.007561485,0.096220404,-0.107800889,0.052400518,2.654592752,0.700866699,0.845748663
1706626594.689974,,,,,,,,,,0.000000000,1703862878.513777494,-0.191158119,0.027550097,-0.993941545,-0.008504828,0.096028775,-0.108760341,0.052787546,2.654579401,0.700877130,0.845749795
1706626594.701873,,,,,,,,,,0.000000000,1703862878.523557186,-0.191769300,0.025984210,-0.993916273,-0.007704980,0.096291482,-0.108858664,0.052906040,2.654568911,0.700881064,0.845756412
1706626594.706028,,,,,,,,,,0.000000000,1703862878.523806095,-0.192759460,0.024720537,-0.993922412,-0.007139070,0.096743472,-0.107008933,0.052038983,2.654585123,0.700835109,0.845728099
1706626594.710943,1859.000000000,1703862877.894052744,0.000000000,0.000000000,0.000000000,0.000000000,3.059386730,0.704560399,0.815499961,,,,,,,,,,,,
1706626594.713486,,,,,,,,,,0.000000000,1703862878.534148932,-0.191794856,0.025349538,-0.993923426,-0.007399755,0.096286550,-0.108632501,0.052823972,2.654591799,0.700836003,0.845737696
1706626594.720248,,,,,,,,,,0.000000000,1703862878.543613911,-0.191231927,0.026365390,-0.993924558,-0.007880894,0.096036881,-0.109450175,0.053186566,2.654598475,0.700841188,0.845742285
1706626594.722909,,,,,,,,,,0.000000000,1703862878.543745279,-0.191630996,0.026399749,-0.993920684,-0.007914251,0.096233845,-0.108880836,0.052898321,2.654590845,0.700831294,0.845724344
1706626594.730125,,,,,,,,,,0.000000000,1703862878.553633928,-0.191665303,0.026092053,-0.993932247,-0.007782220,0.096240990,-0.108427130,0.052687339,2.654595137,0.700855911,0.845731556
1706626594.732622,,,,,,,,,,0.000000000,1703862878.553923368,-0.191817574,0.025829226,-0.993922412,-0.007640862,0.096310243,-0.108562960,0.052766114,2.654571056,0.700874507,0.845723212
1706626594.740292,,,,,,,,,,0.000000000,1703862878.563672543,-0.191168604,0.025625147,-0.993922830,-0.007501203,0.095986784,-0.109733132,0.053363293,2.654581070,0.700872898,0.845737576
1706626594.742615,,,,,,,,,,0.000000000,1703862878.563821077,-0.191492928,0.025022692,-0.993941784,-0.007250799,0.096127503,-0.108525642,0.052789263,2.654575586,0.700894713,0.845742047
1706626594.752246,,,,,,,,,,0.000000000,1703862878.573738098,-0.192080693,0.022676045,-0.993923604,-0.006071868,0.096357346,-0.108453580,0.052861366,2.654592752,0.700823784,0.845714629
1706626594.756335,,,,,,,,,,0.000000000,1703862878.573919058,-0.192402108,0.022876679,-0.993906856,-0.006161124,0.096522465,-0.108486856,0.052865576,2.654566765,0.700849891,0.845724285
1706626594.760393,,,,,,,,,,0.000000000,1703862878.583620787,-0.192129356,0.021697028,-0.993909001,-0.005556512,0.096357226,-0.109024023,0.053191625,2.654574871,0.700847149,0.845713079
1706626594.763412,,,,,,,,,,0.000000000,1703862878.583805799,-0.191727002,0.021884417,-0.993920505,-0.005647927,0.096163034,-0.109290857,0.053318441,2.654573917,0.700831532,0.845700920
1706626594.770318,,,,,,,,,,0.000000000,1703862878.593755484,-0.193273231,0.019864226,-0.993899882,-0.004688925,0.096873231,-0.107479848,0.052503899,2.654586792,0.700831473,0.845701516
1706626594.772825,,,,,,,,,,0.000000000,1703862878.593882322,-0.192776431,0.020746566,-0.993912697,-0.005124761,0.096650384,-0.107814462,0.052631292,2.654585600,0.700842977,0.845712185
1706626594.777045,1860.000000000,1703862877.894236565,0.000000000,0.000000000,0.000000000,0.000000000,3.059386730,0.704560399,0.815499961,,,,,,,,,,,,
1706626594.785170,,,,,,,,,,0.000000000,1703862878.603588581,-0.192819705,0.020481029,-0.993907154,-0.004984062,0.096665286,-0.107970812,0.052721489,2.654566765,0.700841129,0.845683575
1706626594.789255,,,,,,,,,,0.000000000,1703862878.603693724,-0.192997564,0.020800149,-0.993927479,-0.005192475,0.096759155,-0.106840392,0.052142914,2.654574156,0.700865448,0.845717847
1706626594.791431,,,,,,,,,,0.000000000,1703862878.613877296,-0.192966537,0.019733892,-0.993919611,-0.004641175,0.096717000,-0.107300442,0.052423354,2.654577255,0.700834692,0.845697820
1706626594.800044,,,,,,,,,,0.000000000,1703862878.623581409,-0.191619990,0.021694581,-0.993925810,-0.005555993,0.096104831,-0.109302453,0.053334188,2.654595613,0.700840890,0.845707178
1706626594.802459,,,,,,,,,,0.000000000,1703862878.623828411,-0.193327344,0.021261785,-0.993902087,-0.005397300,0.096935935,-0.107163484,0.052278552,2.654574156,0.700890422,0.845733643
1706626594.810614,,,,,,,,,,0.000000000,1703862878.633712530,-0.192622594,0.021783463,-0.993918657,-0.005646809,0.096601069,-0.107761658,0.052556168,2.654566526,0.700889826,0.845719457
1706626594.820783,,,,,,,,,,0.000000000,1703862878.643827438,-0.192679429,0.022138272,-0.993926704,-0.005843280,0.096637323,-0.107312585,0.052315399,2.654564381,0.700898826,0.845707178
1706626594.830227,,,,,,,,,,0.000000000,1703862878.653854609,-0.191376384,0.024617835,-0.993936479,-0.007030468,0.096060544,-0.108990849,0.053040933,2.654583693,0.700913072,0.845731437
1706626594.832611,,,,,,,,,,0.000000000,1703862878.654137135,-0.190635507,0.025327898,-0.993935347,-0.007343641,0.095715858,-0.110249504,0.053638931,2.654581785,0.700913787,0.845742822
1706626594.840888,,,,,,,,,,0.000000000,1703862878.663792849,-0.192407874,0.023393303,-0.993924499,-0.006453618,0.096536584,-0.107742784,0.052470818,2.654564381,0.700924158,0.845752835
1706626594.845957,1861.000000000,1703862877.894325733,0.000000000,0.000000000,0.000000000,0.000000000,3.059386730,0.704560399,0.815499961,,,,,,,,,,,,
1706626594.850964,,,,,,,,,,0.000000000,1703862878.673651457,-0.191030031,0.022862447,-0.993938863,-0.006132091,0.095844127,-0.109733303,0.053497072,2.654594660,0.700890183,0.845745742
1706626594.853791,,,,,,,,,,0.000000000,1703862878.673824310,-0.192195067,0.023443067,-0.993923306,-0.006463628,0.096433528,-0.108168846,0.052681945,2.654570580,0.700892031,0.845744371
1706626594.860713,,,,,,,,,,0.000000000,1703862878.683635950,-0.190421181,0.024682745,-0.993937910,-0.007011472,0.095593341,-0.110616701,0.053854167,2.654584408,0.700885296,0.845724881
1706626594.864653,,,,,,,,,,0.000000000,1703862878.683761358,-0.191326120,0.022047193,-0.993947983,-0.005756000,0.095967211,-0.108955908,0.053147398,2.654597998,0.700896978,0.845732629
1706626594.870820,,,,,,,,,,0.000000000,1703862878.693891287,-0.192795645,0.023255979,-0.993908942,-0.006379372,0.096725360,-0.107647557,0.052426878,2.654556274,0.700908899,0.845717728
1706626594.880431,,,,,,,,,,0.000000000,1703862878.703939915,-0.192433980,0.021698306,-0.993927240,-0.005608554,0.096505165,-0.107784197,0.052572984,2.654562950,0.700870335,0.845692694
1706626594.890634,,,,,,,,,,0.000000000,1703862878.713742733,-0.192148488,0.021174638,-0.993945777,-0.005362344,0.096349195,-0.107654770,0.052536175,2.654568911,0.700861871,0.845720232
1706626594.902040,,,,,,,,,,0.000000000,1703862878.723727226,-0.192813362,0.021867592,-0.993919551,-0.005702376,0.096696950,-0.107369258,0.052355565,2.654535294,0.700860500,0.845704019
1706626594.906625,,,,,,,,,,0.000000000,1703862878.724148035,-0.192398616,0.022814334,-0.993903279,-0.006123191,0.096519522,-0.108632851,0.052941162,2.654545784,0.700848937,0.845695555
1706626594.910569,,,,,,,,,,0.000000000,1703862878.733706236,-0.192305737,0.022891208,-0.993930101,-0.006205275,0.096472763,-0.107776236,0.052512523,2.654543161,0.700854957,0.845702112
1706626594.913419,,,,,,,,,,0.000000000,1703862878.733911276,-0.191946807,0.023931974,-0.993934751,-0.006715734,0.096322879,-0.108120734,0.052636579,2.654570818,0.700878084,0.845734119
1706626594.920100,,,,,,,,,,0.000000000,1703862878.743686676,-0.191499287,0.023132746,-0.993923068,-0.006266372,0.096083686,-0.109462367,0.053345550,2.654574394,0.700854361,0.845716357
1706626594.922551,,,,,,,,,,0.000000000,1703862878.744119406,-0.191651651,0.025314871,-0.993931174,-0.007387870,0.096214376,-0.108603666,0.052812587,2.654558182,0.700883865,0.845740199
1706626594.927020,1862.000000000,1703862878.603693724,0.000000000,0.000000000,0.000000000,0.000000000,3.059386730,0.704560399,0.815499961,,,,,,,,,,,,
1706626594.930512,,,,,,,,,,0.000000000,1703862878.754058838,-0.191389716,0.024806983,-0.993941784,-0.007136025,0.096071303,-0.108742586,0.052908354,2.654555559,0.700853348,0.845737159
1706626594.940832,,,,,,,,,,0.000000000,1703862878.763943911,-0.191445950,0.024798397,-0.993942380,-0.007136274,0.096098557,-0.108616219,0.052845467,2.654572010,0.700852215,0.845726728
1706626594.951401,,,,,,,,,,0.000000000,1703862878.773821115,-0.190733994,0.024512298,-0.993941069,-0.006948748,0.095741965,-0.109973933,0.053540155,2.654580355,0.700863838,0.845745564
1706626594.954364,,,,,,,,,,0.000000000,1703862878.773922443,-0.191903791,0.024120791,-0.993912756,-0.006768197,0.096309468,-0.109004435,0.053067017,2.654559374,0.700865149,0.845725060
1706626594.961501,,,,,,,,,,0.000000000,1703862878.783619881,-0.191662546,0.025894230,-0.993920565,-0.007661222,0.096236214,-0.108900189,0.052931972,2.654568434,0.700872481,0.845741987
1706626594.970412,,,,,,,,,,0.000000000,1703862878.793792248,-0.190919902,0.025882280,-0.993950427,-0.007666099,0.095867664,-0.109103745,0.053040419,2.654570103,0.700881124,0.845731437
1706626594.980064,,,,,,,,,,0.000000000,1703862878.803611755,-0.190676362,0.025776573,-0.993950188,-0.007598473,0.095745578,-0.109560180,0.053274516,2.654576778,0.700888216,0.845746636
1706626594.982738,,,,,,,,,,0.000000000,1703862878.803783178,-0.190585202,0.027020789,-0.993953466,-0.008226333,0.095732808,-0.109414463,0.053143375,2.654555798,0.700878918,0.845749855
1706626594.988341,1863.000000000,1703862878.613693476,0.000000000,0.000000000,0.000000000,0.000000000,3.059386730,0.704560399,0.815499961,,,,,,,,,,,,
1706626594.992636,,,,,,,,,,0.000000000,1703862878.813616991,-0.190876924,0.024667832,-0.993942738,-0.007038353,0.095815942,-0.109633608,0.053362321,2.654590130,0.700818896,0.845734000
1706626595.001648,,,,,,,,,,0.000000000,1703862878.823945761,-0.190533390,0.025799424,-0.993945241,-0.007593138,0.095676780,-0.109992347,0.053489484,2.654582262,0.700815141,0.845751822
1706626595.004695,,,,,,,,,,0.000000000,1703862878.824203730,-0.190908607,0.025264335,-0.993949175,-0.007352005,0.095846213,-0.109256147,0.053145874,2.654577017,0.700803041,0.845731974
1706626595.011201,,,,,,,,,,0.000000000,1703862878.833769083,-0.014189284,3.039343551,-0.050458543,-0.996104598,-0.071513534,0.144066526,-0.010744728,2.658543348,0.704044759,0.814340949
1706626595.020645,,,,,,,,,,0.000000000,1703862878.843630552,-0.187390824,-0.064110600,-0.993542194,0.036824677,0.091685995,-0.106142292,0.055780739,2.655213594,0.702419698,0.846702576
1706626595.030427,,,,,,,,,,0.000000000,1703862878.853655338,-0.015300790,3.041871366,-0.049154069,-0.996131599,-0.071969561,0.145011016,-0.011231140,2.658554792,0.704009593,0.814299285
1706626595.032951,,,,,,,,,,0.000000000,1703862878.853899479,-0.014049392,3.040781284,-0.049748007,-0.996144176,-0.071478888,0.143974364,-0.010621352,2.658543110,0.703984082,0.814326644
1706626595.040639,,,,,,,,,,0.000000000,1703862878.863742828,-0.188173233,-0.065407195,-0.993512392,0.037435971,0.092059873,-0.105006781,0.055286877,2.655232430,0.702325106,0.846657813
1706626595.052929,1864.000000000,1703862878.613877296,0.000000000,0.000000000,0.000000000,0.000000000,3.059386730,0.704560399,0.815499961,,,,,,,,,,,,
1706626595.055596,,,,,,,,,,0.000000000,1703862878.873855352,-0.014941400,3.040513636,-0.049844388,-0.996105313,-0.071879283,0.144826719,-0.011096418,2.658557177,0.703968823,0.814332187
1706626595.061836,,,,,,,,,,0.000000000,1703862878.883836985,-0.015844442,3.039742297,-0.050188225,-0.996037424,-0.072499059,0.146126294,-0.011606482,2.658572912,0.703953087,0.814346552
1706626595.065862,,,,,,,,,,0.000000000,1703862878.883932829,0.024222153,3.094187927,-0.024324404,-0.998137593,-0.054893546,0.109306992,0.010794746,2.657752037,0.703291118,0.812729537
1706626595.072813,,,,,,,,,,0.000000000,1703862878.893748283,-0.014808048,3.038945230,-0.050631836,-0.996075690,-0.071741618,0.144560902,-0.011079643,2.658566475,0.703994274,0.814386368
1706626595.083348,,,,,,,,,,0.000000000,1703862878.903854609,-0.015088886,3.040706162,-0.049740706,-0.996094108,-0.072093949,0.145263115,-0.011173804,2.658560276,0.703980923,0.814341784
1706626595.088554,,,,,,,,,,0.000000000,1703862878.904009581,0.023276222,3.094683657,-0.024054358,-0.998133481,-0.055175193,0.109898281,0.010329137,2.657782793,0.703329563,0.812759399
1706626595.093609,,,,,,,,,,0.000000000,1703862878.913773060,-0.014599123,3.039699259,-0.050262000,-0.996082902,-0.071921736,0.144903394,-0.010957154,2.658544064,0.703975081,0.814370155
1706626595.102744,,,,,,,,,,0.000000000,1703862878.923734665,-0.014370329,3.039598855,-0.050324265,-0.996106863,-0.071563967,0.144174367,-0.010828478,2.658536673,0.704007328,0.814363301
1706626595.107837,,,,,,,,,,0.000000000,1703862878.923810244,-0.014698242,3.040790037,-0.049718935,-0.996134818,-0.071580008,0.144210357,-0.010950063,2.658534527,0.703999162,0.814324260
1706626595.112843,,,,,,,,,,0.000000000,1703862878.933644772,-0.014912647,3.039413408,-0.050391342,-0.996064484,-0.072057545,0.145195450,-0.011130929,2.658564329,0.704011917,0.814364076
1706626595.121079,,,,,,,,,,0.000000000,1703862878.943722963,-0.014231440,3.039440622,-0.050408363,-0.996104896,-0.071541622,0.144124055,-0.010763702,2.658550024,0.703996658,0.814376831
1706626595.130140,,,,,,,,,,0.000000000,1703862878.953786850,-0.014337122,3.039247139,-0.050499216,-0.996088684,-0.071694039,0.144437631,-0.010831174,2.658533096,0.704004526,0.814366400
1706626595.140002,1865.000000000,1703862878.623581409,0.000000000,0.000000000,0.000000000,0.000000000,3.059386730,0.704560399,0.815499961,,,,,,,,,,,,
1706626595.142444,,,,,,,,,,0.000000000,1703862878.963877439,-0.014674238,3.038534135,-0.050838105,-0.996043861,-0.072042488,0.145162630,-0.011043047,2.658552647,0.703995347,0.814385295
1706626595.150972,,,,,,,,,,0.000000000,1703862878.973967552,0.022682847,3.093334806,-0.024713077,-0.998111129,-0.055351302,0.110251171,0.009991424,2.657759666,0.703359127,0.812806249
1706626595.160545,,,,,,,,,,0.000000000,1703862878.983836651,-0.015092119,3.039250648,-0.050466720,-0.996065557,-0.071976624,0.145044068,-0.011222351,2.658555508,0.703963876,0.814376354
1706626595.170600,,,,,,,,,,0.000000000,1703862878.993845224,-0.014222986,3.039023696,-0.050616372,-0.996094763,-0.071534872,0.144114566,-0.010774165,2.658535480,0.703974783,0.814383626
1706626595.180720,,,,,,,,,,0.000000000,1703862879.003658295,-0.014781037,3.038628187,-0.050791822,-0.996074915,-0.071641162,0.144361311,-0.011072496,2.658538818,0.703995585,0.814393222
1706626595.184717,,,,,,,,,,0.000000000,1703862879.003958464,-0.014498851,3.039431162,-0.050399575,-0.996078968,-0.071885146,0.144827710,-0.010914951,2.658549070,0.703989923,0.814386487
1706626595.190322,,,,,,,,,,0.000000000,1703862879.013772964,-0.014894288,3.039766110,-0.050219148,-0.996091545,-0.071809508,0.144692530,-0.011096451,2.658527613,0.703996420,0.814367831
1706626595.200713,1866.000000000,1703862878.623656273,0.000000000,0.000000000,0.000000000,0.000000000,3.059386730,0.704560399,0.815499961,,,,,,,,,,,,
1706626595.204079,,,,,,,,,,0.000000000,1703862879.023921013,-0.014882747,3.038437647,-0.050879817,-0.996049106,-0.071925059,0.144938782,-0.011144664,2.658545017,0.703977525,0.814398468
1706626595.211379,,,,,,,,,,0.000000000,1703862879.033738852,0.023615265,3.092036458,-0.025380349,-0.998121560,-0.054774445,0.109059790,0.010435943,2.657756805,0.703363538,0.812821627
1706626595.220634,,,,,,,,,,0.000000000,1703862879.043796778,-0.015220599,3.039542260,-0.050314482,-0.996057749,-0.072180755,0.145457293,-0.011286236,2.658593893,0.704005063,0.814387918
1706626595.230284,,,,,,,,,,0.000000000,1703862879.053627491,-0.014624376,3.038752186,-0.050729729,-0.996039093,-0.072189823,0.145453447,-0.011017739,2.658549786,0.703985393,0.814388216
1706626595.232849,,,,,,,,,,0.000000000,1703862879.053955555,-0.014419611,3.038877941,-0.050681457,-0.996088028,-0.071565568,0.144187996,-0.010879162,2.658543587,0.703994811,0.814403355
1706626595.239959,,,,,,,,,,0.000000000,1703862879.063573837,-0.014552800,3.039087937,-0.050569519,-0.996076524,-0.071794085,0.144651432,-0.010949696,2.658573627,0.703956127,0.814382017
1706626595.242347,,,,,,,,,,0.000000000,1703862879.063707113,-0.014643511,3.039091418,-0.050564397,-0.996075869,-0.071801178,0.144670322,-0.010995225,2.658548594,0.703977287,0.814385176
1706626595.250620,,,,,,,,,,0.000000000,1703862879.073600531,-0.015365046,3.039531577,-0.050315522,-0.996063471,-0.072090290,0.145283227,-0.011354177,2.658571720,0.703970075,0.814378440
1706626595.253552,,,,,,,,,,0.000000000,1703862879.073773861,-0.014883435,3.040600933,-0.049803194,-0.996108770,-0.071865104,0.144794317,-0.011063606,2.658546686,0.703990459,0.814365745
1706626595.260614,,,,,,,,,,0.000000000,1703862879.083714485,0.022725123,3.093155640,-0.024802562,-0.998114586,-0.055244405,0.110034188,0.010010255,2.657802582,0.703327119,0.812825024
1706626595.263039,,,,,,,,,,0.000000000,1703862879.083856583,-0.010035628,3.044379501,-0.048067231,-0.995952070,-0.075456783,0.151726191,-0.008679864,2.658599377,0.704219818,0.814190865
1706626595.270171,1867.000000000,1703862878.623828411,0.000000000,0.000000000,0.000000000,0.000000000,3.059386730,0.704560399,0.815499961,,,,,,,,,,,,
1706626595.272742,,,,,,,,,,0.000000000,1703862879.093744993,-0.015501179,3.040763696,-0.049696945,-0.996094227,-0.072091818,0.145279211,-0.011377461,2.658560753,0.703993142,0.814372003
1706626595.280127,,,,,,,,,,0.000000000,1703862879.103508234,-0.014427102,3.040808117,-0.049717173,-0.996118784,-0.071822770,0.144683754,-0.010826145,2.658544779,0.703982353,0.814347386
1706626595.282647,,,,,,,,,,0.000000000,1703862879.103806257,-0.013998614,3.038988858,-0.050643377,-0.996104598,-0.071395621,0.143823722,-0.010656305,2.658529520,0.703984618,0.814376950
1706626595.290178,,,,,,,,,,0.000000000,1703862879.113627434,-0.014207992,3.039368719,-0.050445642,-0.996107280,-0.071484640,0.144009204,-0.010751700,2.658526182,0.704004288,0.814377785
1706626595.292674,,,,,,,,,,0.000000000,1703862879.113832712,-0.013995762,3.039490385,-0.050393324,-0.996114850,-0.071433082,0.143893419,-0.010638737,2.658532858,0.704010308,0.814382255
1706626595.302593,,,,,,,,,,0.000000000,1703862879.123611450,-0.014522313,3.039043224,-0.050594758,-0.996087670,-0.071624711,0.144310263,-0.010927488,2.658549309,0.704012692,0.814393699
1706626595.307729,,,,,,,,,,0.000000000,1703862879.123992205,-0.014126974,3.039035981,-0.050612934,-0.996089935,-0.071610369,0.144261050,-0.010729617,2.658519506,0.704019129,0.814397693
1706626595.313083,,,,,,,,,,0.000000000,1703862879.134097099,-0.014256096,3.038923975,-0.050663989,-0.996086478,-0.071611747,0.144271728,-0.010798202,2.658536673,0.703995109,0.814390957
1706626595.318270,,,,,,,,,,0.000000000,1703862879.134252787,-0.014328065,3.038807017,-0.050718389,-0.996075213,-0.071724258,0.144502629,-0.010844088,2.658534527,0.703999400,0.814385056
1706626595.325376,1868.000000000,1703862878.633646011,0.000000000,0.000000000,0.000000000,0.000000000,3.059386730,0.704560399,0.815499961,,,,,,,,,,,,
1706626595.330467,,,,,,,,,,0.000000000,1703862879.143866539,-0.014527989,3.039174257,-0.050527778,-0.996081054,-0.071763501,0.144587785,-0.010932634,2.658527613,0.704017878,0.814382851
1706626595.335615,,,,,,,,,,0.000000000,1703862879.153959990,-0.014007520,3.038798609,-0.050737735,-0.996099293,-0.071401618,0.143838256,-0.010667901,2.658521175,0.704025567,0.814394236
1706626595.342777,,,,,,,,,,0.000000000,1703862879.163808107,-0.013829356,3.038914994,-0.050685700,-0.996099174,-0.071453147,0.143931231,-0.010577371,2.658525229,0.704021275,0.814389050
1706626595.352909,,,,,,,,,,0.000000000,1703862879.173943996,-0.014502566,3.038680363,-0.050774921,-0.996070206,-0.071739368,0.144543429,-0.010936568,2.658536911,0.704038858,0.814405739
1706626595.358052,,,,,,,,,,0.000000000,1703862879.174465418,-0.013574351,3.037956541,-0.051173002,-0.996080279,-0.071383506,0.143788243,-0.010480958,2.658506870,0.704038620,0.814396620
1706626595.363015,,,,,,,,,,0.000000000,1703862879.183901787,-0.013571763,3.038636925,-0.050836097,-0.996110320,-0.071209222,0.143431033,-0.010446304,2.658513069,0.704027176,0.814389288
1706626595.372927,,,,,,,,,,0.000000000,1703862879.193642855,-0.014010707,3.038592310,-0.050837521,-0.996074975,-0.071665660,0.144370794,-0.010690389,2.658516884,0.704018235,0.814381659
1706626595.378085,,,,,,,,,,0.000000000,1703862879.193788528,-0.014317251,3.038643479,-0.050798446,-0.996059239,-0.071887031,0.144830689,-0.010852899,2.658547401,0.704006374,0.814381480
1706626595.383519,,,,,,,,,,0.000000000,1703862879.203962088,-0.015333161,3.039090652,-0.050534464,-0.996040940,-0.072247811,0.145602886,-0.011362270,2.658544540,0.704011440,0.814353526
1706626595.389257,1869.000000000,1703862878.633712530,0.000000000,0.000000000,0.000000000,0.000000000,3.059386730,0.704560399,0.815499961,,,,,,,,,,,,
1706626595.392436,,,,,,,,,,0.000000000,1703862879.213835955,-0.015069523,3.040370449,-0.049910765,-0.996099710,-0.071900822,0.144878114,-0.011166655,2.658542871,0.704002440,0.814314842
1706626595.401929,,,,,,,,,,0.000000000,1703862879.223797560,-0.014569039,3.040636916,-0.049795918,-0.996105194,-0.071943589,0.144935446,-0.010909249,2.658518553,0.703973532,0.814319551
1706626595.411356,,,,,,,,,,0.000000000,1703862879.233624458,-0.014899374,3.040828399,-0.049690869,-0.996124387,-0.071726620,0.144514565,-0.011056419,2.658504963,0.704021454,0.814330161
1706626595.414287,,,,,,,,,,0.000000000,1703862879.233738422,-0.015307964,3.040783508,-0.049691636,-0.996079206,-0.072315611,0.145718480,-0.011291436,2.658530712,0.704020441,0.814329982
1706626595.420510,,,,,,,,,,0.000000000,1703862879.243962288,-0.016161618,3.041189205,-0.049455248,-0.996068120,-0.072563201,0.146254388,-0.011715152,2.658546925,0.704010785,0.814324617
1706626595.430181,,,,,,,,,,0.000000000,1703862879.253599644,-0.015954551,3.041441082,-0.049337629,-0.996076226,-0.072550267,0.146214956,-0.011601920,2.658553600,0.704003572,0.814304650
1706626595.432621,,,,,,,,,,0.000000000,1703862879.253891706,-0.015351096,3.040483451,-0.049840439,-0.996077657,-0.072230160,0.145552514,-0.011319630,2.658528566,0.704026878,0.814347386
1706626595.439908,,,,,,,,,,0.000000000,1703862879.263581991,-0.014984538,3.041419080,-0.049392350,-0.996130943,-0.071839273,0.144738492,-0.011083182,2.658506632,0.704021573,0.814307511
1706626595.442283,,,,,,,,,,0.000000000,1703862879.263769150,-0.015648313,3.040452803,-0.049848162,-0.996097088,-0.071934834,0.144975102,-0.011454362,2.658495665,0.704061329,0.814341664
1706626595.450340,,,,,,,,,,0.000000000,1703862879.273676634,-0.015025800,3.041079930,-0.049558483,-0.996114135,-0.071951628,0.144969953,-0.011121649,2.658503532,0.704026878,0.814302862
1706626595.453536,,,,,,,,,,0.000000000,1703862879.274158716,-0.014531717,3.039397970,-0.050417099,-0.996092439,-0.071684867,0.144427639,-0.010922426,2.658489227,0.704042792,0.814350069
1706626595.460412,,,,,,,,,,0.000000000,1703862879.283819914,-0.014749455,3.039906513,-0.050154906,-0.996098161,-0.071775287,0.144614805,-0.011017332,2.658488750,0.704066694,0.814355195
1706626595.470035,,,,,,,,,,0.000000000,1703862879.293582916,-0.014993368,3.040008803,-0.050092395,-0.996082664,-0.072012439,0.145102380,-0.011147346,2.658507586,0.704064667,0.814348161
1706626595.472471,,,,,,,,,,0.000000000,1703862879.293718815,-0.014814665,3.040172801,-0.050019059,-0.996099114,-0.071852200,0.144769637,-0.011044123,2.658520937,0.704035938,0.814341962
1706626595.476742,1870.000000000,1703862878.643610716,0.000000000,0.000000000,0.000000000,0.000000000,3.059386730,0.704560399,0.815499961,,,,,,,,,,,,
1706626595.482669,,,,,,,,,,0.000000000,1703862879.303646803,-0.014379747,3.039673316,-0.050284173,-0.996091068,-0.071809039,0.144666109,-0.010842868,2.658511400,0.704082012,0.814373851
1706626595.487455,,,,,,,,,,0.000000000,1703862879.303955555,-0.009653597,3.042688703,-0.048922755,-0.995903015,-0.075568654,0.151946585,-0.008558816,2.658582211,0.704309225,0.814210773
1706626595.492193,,,,,,,,,,0.000000000,1703862879.313582659,-0.014828248,3.038617750,-0.050791066,-0.996047139,-0.072020836,0.145126229,-0.011115808,2.658515453,0.704058111,0.814406216
1706626595.496791,,,,,,,,,,0.000000000,1703862879.313755274,-0.014841461,3.038874435,-0.050664999,-0.996068120,-0.071819820,0.144720443,-0.011102865,2.658486843,0.704060555,0.814391017
1706626595.500489,,,,,,,,,,0.000000000,1703862879.323855877,-0.192184801,-0.047438144,-0.993629694,0.028584868,0.094553702,-0.104504980,0.054245543,2.655041456,0.702062368,0.846250892
1706626595.503510,,,,,,,,,,0.000000000,1703862879.324000835,-0.014880739,3.038299316,-0.050948940,-0.996046603,-0.071910255,0.144910500,-0.011147918,2.658510923,0.704047978,0.814405978
1706626595.511562,,,,,,,,,,0.000000000,1703862879.334189415,-0.014236845,3.038006403,-0.051121715,-0.996063530,-0.071603678,0.144264465,-0.010821284,2.658476830,0.704073310,0.814419329
1706626595.520256,,,,,,,,,,0.000000000,1703862879.343706608,-0.015003879,3.038866999,-0.050661933,-0.996062040,-0.071893692,0.144877285,-0.011187990,2.658508539,0.704070151,0.814409971
1706626595.533591,,,,,,,,,,0.000000000,1703862879.353726387,-0.014137111,3.040586495,-0.049842492,-0.996143341,-0.071416199,0.143855069,-0.010669027,2.658504486,0.704039931,0.814358175
1706626595.536540,,,,,,,,,,0.000000000,1703862879.353875875,-0.015392145,3.040314924,-0.049926270,-0.996095002,-0.071930066,0.144953976,-0.011331218,2.658502102,0.704039574,0.814343870
1706626595.540329,,,,,,,,,,0.000000000,1703862879.363753319,-0.015482784,3.039664394,-0.050242707,-0.996051550,-0.072295569,0.145699964,-0.011418493,2.658512354,0.704049945,0.814356387
1706626595.542963,,,,,,,,,,0.000000000,1703862879.363952160,-0.014650998,3.039232960,-0.050493021,-0.996075392,-0.071856856,0.144780952,-0.010996665,2.658509493,0.704042315,0.814375818
1706626595.550447,,,,,,,,,,0.000000000,1703862879.373591900,-0.015847859,3.039678773,-0.050220110,-0.996038079,-0.072466075,0.146060997,-0.011608846,2.658530235,0.704037249,0.814343691
1706626595.553086,,,,,,,,,,0.000000000,1703862879.373953581,-0.015068658,3.040301927,-0.049946290,-0.996106803,-0.071778744,0.144633723,-0.011162586,2.658488274,0.704035282,0.814348757
1706626595.558355,1871.000000000,1703862878.643827438,0.000000000,0.000000000,0.000000000,0.000000000,3.059386730,0.704560399,0.815499961,,,,,,,,,,,,
1706626595.561094,,,,,,,,,,0.000000000,1703862879.383881569,-0.014556262,3.038429393,-0.050897844,-0.996062934,-0.071747668,0.144565652,-0.010972877,2.658481598,0.704013765,0.814383268
1706626595.570233,,,,,,,,,,0.000000000,1703862879.393665552,-0.014962571,3.039259261,-0.050467566,-0.996068776,-0.071942434,0.144968609,-0.011155622,2.658480406,0.704063535,0.814397275
1706626595.572716,,,,,,,,,,0.000000000,1703862879.393929958,-0.015105855,3.039021067,-0.050581239,-0.996064126,-0.071914956,0.144923535,-0.011234406,2.658480644,0.704058945,0.814396918
1706626595.579921,,,,,,,,,,0.000000000,1703862879.403882742,-0.014673494,3.040423036,-0.049896557,-0.996085942,-0.072129168,0.145315751,-0.010978451,2.658477545,0.704063118,0.814359725
1706626595.582158,,,,,,,,,,0.000000000,1703862879.404005289,-0.015157050,3.040579791,-0.049803946,-0.996108770,-0.071844339,0.144766831,-0.011199949,2.658473253,0.704074919,0.814356267
1706626595.590846,,,,,,,,,,0.000000000,1703862879.413795233,-0.015200491,3.039111922,-0.050534036,-0.996075630,-0.071781330,0.144659125,-0.011271587,2.658465624,0.704063177,0.814384937
1706626595.600930,,,,,,,,,,0.000000000,1703862879.423726559,-0.191872481,-0.047130944,-0.993646145,0.028429894,0.094405204,-0.104619606,0.054285094,2.655023813,0.702007651,0.846215606
1706626595.603964,,,,,,,,,,0.000000000,1703862879.424193859,-0.014953201,3.039089556,-0.050553359,-0.996070504,-0.071858145,0.144800787,-0.011152818,2.658455610,0.704079092,0.814397514
1706626595.611256,,,,,,,,,,0.000000000,1703862879.433673143,-0.014779358,3.038889899,-0.050659176,-0.996066213,-0.071855307,0.144788297,-0.011073100,2.658456802,0.704062819,0.814394891
1706626595.620300,,,,,,,,,,0.000000000,1703862879.443615437,-0.014839284,3.038603223,-0.050799236,-0.996055365,-0.071900465,0.144885277,-0.011115707,2.658463955,0.704046309,0.814414859
1706626595.622874,,,,,,,,,,0.000000000,1703862879.443758011,-0.191899804,-0.047554964,-0.993631721,0.028653380,0.094403580,-0.104876911,0.054433193,2.655022621,0.702029645,0.846229672
1706626595.627256,1872.000000000,1703862879.303646803,0.000000000,0.000000000,0.000000000,0.000000000,3.059386730,0.704560399,0.815499961,,,,,,,,,,,,
1706626595.630049,,,,,,,,,,0.000000000,1703862879.453634262,-0.191875858,-0.047620106,-0.993636906,0.028676504,0.094392531,-0.104693824,0.054345082,2.655021667,0.702013791,0.846221924
1706626595.632722,,,,,,,,,,0.000000000,1703862879.453995228,-0.191764180,-0.045803104,-0.993675947,0.027757075,0.094390459,-0.104399023,0.054111846,2.655035257,0.702034652,0.846250176
1706626595.640089,,,,,,,,,,0.000000000,1703862879.463663816,-0.009936180,3.044434965,0.048043448,0.995953977,0.075452127,0.151711490,0.008627897,2.658531904,0.704287052,0.814193189
1706626595.651017,,,,,,,,,,0.000000000,1703862879.473760366,-0.014245779,3.039363263,0.050444387,0.996089756,0.071724780,0.144493374,0.010782926,2.658468723,0.704000831,0.814387918
1706626595.654311,,,,,,,,,,0.000000000,1703862879.473832130,-0.014496349,3.040916892,0.049662355,0.996133685,0.071649589,0.144338397,0.010848151,2.658475399,0.704035223,0.814380705
1706626595.659481,1873.000000000,1703862879.303772688,0.000000000,0.000000000,0.000000000,0.000000000,3.059386730,0.704560399,0.815499961,,,,,,,,,,,,
1706626595.663273,,,,,,,,,,0.000000000,1703862879.483697653,-0.015245969,3.040448837,0.049861178,0.996074796,0.072262220,0.145611909,0.011270005,2.658487320,0.704025269,0.814364970
1706626595.670142,,,,,,,,,,0.000000000,1703862879.493649244,-0.191786930,-0.046493082,0.993665874,-0.028099453,-0.094383396,-0.104377931,-0.054134138,2.655036688,0.701974869,0.846212924
1706626595.672656,,,,,,,,,,0.000000000,1703862879.493792057,-0.014890373,3.041351279,0.049425848,0.996105373,0.072173752,0.145406043,0.011055217,2.658495188,0.704024971,0.814336061
1706626595.680270,,,,,,,,,,0.000000000,1703862879.503760815,-0.014812745,3.040860848,0.049675465,0.996109843,0.071944460,0.144947166,0.011022856,2.658483505,0.704016924,0.814332247
1706626595.682933,,,,,,,,,,0.000000000,1703862879.503952026,-0.014900221,3.040264863,0.049966160,0.996075690,0.072204709,0.145480781,0.011101193,2.658480644,0.704042673,0.814371884
1706626595.689889,,,,,,,,,,0.000000000,1703862879.513591528,-0.015130426,3.040340000,0.049920350,0.996077180,0.072198406,0.145479079,0.011213082,2.658491373,0.704016805,0.814352036
1706626595.692671,,,,,,,,,,0.000000000,1703862879.513652563,-0.014861645,3.039660774,0.050269615,0.996068299,0.072095104,0.145265468,0.011098377,2.658475161,0.704040110,0.814381480
1706626595.700994,,,,,,,,,,0.000000000,1703862879.523741961,-0.191902598,-0.046900543,0.993664384,-0.028287513,-0.094435014,-0.104012567,-0.053972900,2.655038118,0.701987922,0.846214175
1706626595.704168,,,,,,,,,,0.000000000,1703862879.523888111,-0.015138971,3.039798875,0.050191980,0.996079266,0.071978413,0.145043900,0.011225950,2.658478737,0.704049349,0.814388752
1706626595.711360,,,,,,,,,,0.000000000,1703862879.533655167,-0.014632016,3.040528010,0.049847487,0.996099830,0.071976125,0.145005189,0.010946268,2.658462763,0.704033434,0.814368069
1706626595.720202,,,,,,,,,,0.000000000,1703862879.543627977,-0.015579907,3.038685622,0.050725371,0.996018887,0.072394408,0.145914726,0.011507685,2.658488512,0.704029202,0.814409733
1706626595.726767,1874.000000000,1703862879.303955555,0.000000000,0.000000000,0.000000000,0.000000000,3.059386730,0.704560399,0.815499961,,,,,,,,,,,,
1706626595.731443,,,,,,,,,,0.000000000,1703862879.553573847,-0.191730617,-0.045879766,0.993656278,-0.027829653,-0.094361305,-0.105147620,-0.054487098,2.655030251,0.701975226,0.846231520
1706626595.735641,,,,,,,,,,0.000000000,1703862879.553713083,-0.014321041,3.040251577,0.049996108,0.996091068,0.072015874,0.145072105,0.010803018,2.658469915,0.704019248,0.814377964
1706626595.740337,,,,,,,,,,0.000000000,1703862879.563776255,-0.015603621,3.039146229,0.050497580,0.996046007,0.072182931,0.145485998,0.011491997,2.658499718,0.704031587,0.814405382
1706626595.752443,,,,,,,,,,0.000000000,1703862879.573961020,-0.015487796,3.040307370,0.049923267,0.996073782,0.072215013,0.145531105,0.011393532,2.658513308,0.704046369,0.814388156
1706626595.761074,,,,,,,,,,0.000000000,1703862879.583975554,-0.015657169,3.040199242,0.049967438,0.996048689,0.072513297,0.146139963,0.011496997,2.658504248,0.704004169,0.814364791
1706626595.770198,,,,,,,,,,0.000000000,1703862879.593811274,-0.015448068,3.041138548,0.049509957,0.996089458,0.072290920,0.145671996,0.011347222,2.658511877,0.703971446,0.814330757
1706626595.781186,,,,,,,,,,0.000000000,1703862879.603736162,-0.015235441,3.041598760,0.049290799,0.996115863,0.072095931,0.145264511,0.011214651,2.658496380,0.703979790,0.814323187
1706626595.784640,,,,,,,,,,0.000000000,1703862879.603885651,-0.014923423,3.040075134,0.050060328,0.996074200,0.072155654,0.145385611,0.011117213,2.658483028,0.703965247,0.814359963
1706626595.789968,,,,,,,,,,0.000000000,1703862879.613726616,-0.015864838,3.039894773,0.050108965,0.996025085,0.072720185,0.146569584,0.011622218,2.658526421,0.703992069,0.814390063
1706626595.792499,,,,,,,,,,0.000000000,1703862879.613889456,-0.016192623,3.041619995,0.049239341,0.996077240,0.072583184,0.146291032,0.011715864,2.658517361,0.704007328,0.814364552
1706626595.801796,,,,,,,,,,0.000000000,1703862879.623693705,-0.015962432,3.039789388,0.050159771,0.996034086,0.072553739,0.146241633,0.011666425,2.658516169,0.703971922,0.814369738
1706626595.804719,,,,,,,,,,0.000000000,1703862879.623849630,-0.015590106,3.040850721,0.049647652,0.996079087,0.072326392,0.145753739,0.011430392,2.658499241,0.703962088,0.814365983
1706626595.811674,,,,,,,,,,0.000000000,1703862879.633962393,-0.016365494,3.041754411,0.049167782,0.996090829,0.072433829,0.145998301,0.011789882,2.658514738,0.703970134,0.814345241
1706626595.816519,,,,,,,,,,0.000000000,1703862879.634189367,-0.015405883,3.040504938,0.049826782,0.996071994,0.072312735,0.145720873,0.011350333,2.658492565,0.703981459,0.814390063
1706626595.820183,,,,,,,,,,0.000000000,1703862879.643634796,-0.015486686,3.041865715,0.049148094,0.996118188,0.072143383,0.145369454,0.011332735,2.658499956,0.703994632,0.814362466
1706626595.822879,,,,,,,,,,0.000000000,1703862879.643783808,-0.015307635,3.041789632,0.049193576,0.996123493,0.072053574,0.145180956,0.011241671,2.658486128,0.703982770,0.814355791
1706626595.827628,1875.000000000,1703862879.313582659,0.000000000,0.000000000,0.000000000,0.000000000,3.059386730,0.704560399,0.815499961,,,,,,,,,,,,
1706626595.830328,,,,,,,,,,0.000000000,1703862879.653689861,-0.015222748,3.042060276,0.049062375,0.996133566,0.072012089,0.145090338,0.011187420,2.658490896,0.704013228,0.814360082
1706626595.834299,,,,,,,,,,0.000000000,1703862879.654110193,-0.015232212,3.040640949,0.049767211,0.996087372,0.072156534,0.145396829,0.011250861,2.658511162,0.704033852,0.814397275
1706626595.841998,,,,,,,,,,0.000000000,1703862879.663643360,-0.014287737,3.038927119,0.050658189,0.996066034,0.071895510,0.144843093,0.010828320,2.658485413,0.704020619,0.814437330
1706626595.855057,,,,,,,,,,0.000000000,1703862879.673683167,-0.014755709,3.039014711,0.050597154,0.996064723,0.071921438,0.144918470,0.011060132,2.658504963,0.704004645,0.814435959
1706626595.858415,,,,,,,,,,0.000000000,1703862879.674154282,-0.192221601,-0.045267900,0.993690729,-0.027450696,-0.094647311,-0.103303295,-0.053546190,2.655030012,0.701998830,0.846310377
1706626595.861592,,,,,,,,,,0.000000000,1703862879.684143305,-0.191164787,-0.045285174,0.993701696,-0.027502909,-0.094101317,-0.104783178,-0.054273020,2.655044556,0.701977670,0.846263885
1706626595.870393,,,,,,,,,,0.000000000,1703862879.693585157,-0.192506467,-0.045036181,0.993660331,-0.027377365,-0.094785035,-0.104037315,-0.053902391,2.655043364,0.701984167,0.846281290
1706626595.872896,,,,,,,,,,0.000000000,1703862879.693712234,-0.015812119,3.038455674,0.050829086,0.995998263,0.072584197,0.146310597,0.011641706,2.658498287,0.704025149,0.814451873
1706626595.880196,,,,,,,,,,0.000000000,1703862879.703630209,-0.192216095,-0.045187131,0.993676126,-0.027438615,-0.094638571,-0.103898877,-0.053838231,2.655027628,0.701975107,0.846257687
1706626595.882605,,,,,,,,,,0.000000000,1703862879.703781605,-0.016163049,3.038281369,0.050899707,0.995972753,0.072851963,0.146868684,0.011836987,2.658514738,0.704008222,0.814439297
1706626595.890209,,,,,,,,,,0.000000000,1703862879.713733196,-0.016232164,3.039581174,0.050250068,0.996006727,0.072840720,0.146834261,0.011823190,2.658515215,0.704000831,0.814417243
1706626595.902183,,,,,,,,,,0.000000000,1703862879.724005938,-0.014970548,3.040621074,0.049789067,0.996103048,0.071946442,0.144961859,0.011110437,2.658499002,0.703942239,0.814379632
1706626595.911699,,,,,,,,,,0.000000000,1703862879.733827829,-0.015555440,3.040406428,0.049869061,0.996060908,0.072423279,0.145951612,0.011434129,2.658519506,0.703956485,0.814374745
1706626595.922156,1876.000000000,1703862879.313755274,0.000000000,0.000000000,0.000000000,0.000000000,3.059386730,0.704560399,0.815499961,,,,,,,,,,,,
1706626595.925540,,,,,,,,,,0.000000000,1703862879.743746758,-0.014858607,3.041000863,0.049602054,0.996100128,0.072125144,0.145310732,0.011049678,2.658510685,0.703975677,0.814370632
1706626595.931811,,,,,,,,,,0.000000000,1703862879.753604889,-0.014822707,3.039851791,0.050176874,0.996079504,0.072009563,0.145089583,0.011067688,2.658488989,0.703981280,0.814391196
1706626595.936208,,,,,,,,,,0.000000000,1703862879.753820419,-0.016001832,3.041396175,0.049355090,0.996055126,0.072819859,0.146759207,0.011640525,2.658519983,0.704005182,0.814373255
1706626595.941753,,,,,,,,,,0.000000000,1703862879.763658524,-0.015685467,3.039309069,0.050408132,0.996016264,0.072644539,0.146415255,0.011550301,2.658505440,0.703958809,0.814390838
1706626595.946192,,,,,,,,,,0.000000000,1703862879.763753891,-0.015443690,3.040158591,0.049998231,0.996065438,0.072280310,0.145661653,0.011380203,2.658513546,0.703971684,0.814388990
1706626595.951363,,,,,,,,,,0.000000000,1703862879.773854494,-0.015129357,3.039487318,0.050342605,0.996040046,0.072410375,0.145914261,0.011254284,2.658502340,0.703958154,0.814413667
1706626595.961166,,,,,,,,,,0.000000000,1703862879.783786058,-0.015063028,3.040925602,0.049631629,0.996094942,0.072160982,0.145393921,0.011156263,2.658513546,0.703947663,0.814379096
1706626595.972723,,,,,,,,,,0.000000000,1703862879.793518066,-0.015419742,3.040962914,0.049597815,0.996080995,0.072347678,0.145786522,0.011342304,2.658524275,0.703931808,0.814372122
1706626595.977984,,,,,,,,,,0.000000000,1703862879.793579578,-0.015467304,3.040873006,0.049641620,0.996083558,0.072278865,0.145651799,0.011365899,2.658519745,0.703941107,0.814385593
1706626595.983240,,,,,,,,,,0.000000000,1703862879.803832054,-0.015189886,3.038756102,0.050705522,0.996027708,0.072318725,0.145741650,0.011306523,2.658527136,0.703943431,0.814430356
1706626595.991675,1877.000000000,1703862879.323694468,0.000000000,0.000000000,0.000000000,0.000000000,3.059386730,0.704560399,0.815499961,,,,,,,,,,,,
1706626595.996677,,,,,,,,,,0.000000000,1703862879.813904762,-0.014826173,3.039520991,0.050337683,0.996046364,0.072350316,0.145777639,0.011098642,2.658529282,0.703943253,0.814435005
1706626596.002766,,,,,,,,,,0.000000000,1703862879.823675156,-0.192138993,-0.045704780,0.993693888,-0.027656572,-0.094597235,-0.103109771,-0.053469978,2.655086994,0.701905727,0.846257985
1706626596.007982,,,,,,,,,,0.000000000,1703862879.823776484,-0.191808865,-0.046114856,0.993681371,-0.027892295,-0.094410375,-0.103958783,-0.053908233,2.655092001,0.701928139,0.846268773
1706626596.012966,,,,,,,,,,0.000000000,1703862879.833784580,-0.191900933,-0.045041186,0.993698835,-0.027348654,-0.094488665,-0.103694725,-0.053727146,2.655093193,0.701936245,0.846274078
1706626596.018023,,,,,,,,,,0.000000000,1703862879.834270477,-0.191232065,-0.045496260,0.993681848,-0.027633114,-0.094122082,-0.105285630,-0.054533184,2.655107260,0.701929629,0.846257567
1706626596.023159,,,,,,,,,,0.000000000,1703862879.843839407,-0.191160830,-0.045714705,0.993690491,-0.027725564,-0.094084933,-0.104981795,-0.054391872,2.655109406,0.701899469,0.846253514
1706626596.032772,,,,,,,,,,0.000000000,1703862879.853627443,0.022352189,3.093101534,-0.024817286,-0.998127997,-0.055028994,0.109610817,0.009827893,2.657784462,0.703274608,0.812864363
1706626596.038013,,,,,,,,,,0.000000000,1703862879.853865385,-0.191544803,-0.046645517,-0.993674278,0.028171018,0.094258383,-0.104417143,0.054158606,2.655127287,0.701849997,0.846240520
1706626596.043203,,,,,,,,,,0.000000000,1703862879.863624811,-0.014689758,3.039630059,-0.050289221,-0.996055067,-0.072275862,0.145619891,-0.011022796,2.658528566,0.703926563,0.814417958
1706626596.051754,,,,,,,,,,0.000000000,1703862879.873597145,-0.015374530,3.039763610,-0.050197914,-0.996058464,-0.072240658,0.145582996,-0.011358061,2.658549309,0.703935683,0.814423561
1706626596.054335,,,,,,,,,,0.000000000,1703862879.873962402,-0.014627378,3.039779785,-0.050218128,-0.996066809,-0.072169721,0.145401903,-0.010980846,2.658531189,0.703898728,0.814396679
1706626596.060234,,,,,,,,,,0.000000000,1703862879.883796930,-0.014254043,3.039692955,-0.050279327,-0.996094286,-0.071777694,0.144596484,-0.010777810,2.658536196,0.703899384,0.814425528
1706626596.070101,,,,,,,,,,0.000000000,1703862879.893671274,-0.013638511,3.039251562,-0.050522413,-0.996090591,-0.071701601,0.144416649,-0.010482563,2.658531904,0.703899741,0.814442456
1706626596.072559,,,,,,,,,,0.000000000,1703862879.894153833,-0.014022643,3.041379932,-0.049448356,-0.996142507,-0.071712397,0.144435462,-0.010598034,2.658549786,0.703904569,0.814386666
1706626596.080680,1878.000000000,1703862879.323855877,0.000000000,0.000000000,0.000000000,0.000000000,3.059386730,0.704560399,0.815499961,,,,,,,,,,,,
1706626596.083834,,,,,,,,,,0.000000000,1703862879.903715372,-0.014514325,3.039300748,-0.050462134,-0.996063590,-0.072050743,0.145162443,-0.010935790,2.658563375,0.703904629,0.814428985
1706626596.090122,,,,,,,,,,0.000000000,1703862879.913640022,-0.014675531,3.038833996,-0.050687023,-0.996040404,-0.072197586,0.145470796,-0.011040700,2.658561707,0.703918278,0.814443290
1706626596.093738,,,,,,,,,,0.000000000,1703862879.913775682,-0.014978763,3.039240967,-0.050474059,-0.996055186,-0.072122820,0.145331853,-0.011173511,2.658569098,0.703936040,0.814440191
1706626596.101420,,,,,,,,,,0.000000000,1703862879.923871279,-0.015473097,3.039886666,-0.050131902,-0.996054232,-0.072337478,0.145781067,-0.011407668,2.658564091,0.703926146,0.814423978
1706626596.104078,,,,,,,,,,0.000000000,1703862879.924077749,-0.015504768,3.040092214,-0.050024718,-0.996036053,-0.072656356,0.146420637,-0.011432002,2.658601284,0.703885853,0.814400256
1706626596.110538,,,,,,,,,,0.000000000,1703862879.933638811,-0.014175984,3.040501572,-0.049877286,-0.996100366,-0.071982995,0.144995955,-0.010719876,2.658562660,0.703886688,0.814397931
1706626596.113087,,,,,,,,,,0.000000000,1703862879.933824778,-0.015881484,3.039734207,-0.050190501,-0.996034622,-0.072531581,0.146193612,-0.011626910,2.658578396,0.703911245,0.814414740
1706626596.120459,,,,,,,,,,0.000000000,1703862879.943687439,-0.015112190,3.040086483,-0.050048444,-0.996078372,-0.072093524,0.145270413,-0.011207930,2.658544779,0.703892946,0.814396858
1706626596.123052,,,,,,,,,,0.000000000,1703862879.944041014,-0.015215640,3.039293226,-0.050438445,-0.996049941,-0.072201110,0.145500728,-0.011293850,2.658544540,0.703892946,0.814411581
1706626596.130180,,,,,,,,,,0.000000000,1703862879.953753948,-0.014699804,3.039787931,-0.050213043,-0.996077478,-0.072022401,0.145109730,-0.011009286,2.658544302,0.703905940,0.814401686
1706626596.138045,1879.000000000,1703862879.324000835,0.000000000,0.000000000,0.000000000,0.000000000,3.059386730,0.704560399,0.815499961,,,,,,,,,,,,
1706626596.140592,,,,,,,,,,0.000000000,1703862879.963734627,-0.014717485,3.038835214,-0.050686069,-0.996048093,-0.072090030,0.145256992,-0.011056131,2.658538580,0.703931212,0.814427733
1706626596.151293,,,,,,,,,,0.000000000,1703862879.974278212,-0.014485723,3.039726863,-0.050255407,-0.996103764,-0.071647123,0.144345876,-0.010885677,2.658531666,0.703932524,0.814418733
1706626596.154232,,,,,,,,,,0.000000000,1703862879.974500895,-0.014789504,3.039379390,-0.050411750,-0.996057272,-0.072152413,0.145379942,-0.011075480,2.658546686,0.703914046,0.814412057
1706626596.160769,,,,,,,,,,0.000000000,1703862879.983857155,-0.015511717,3.040012586,-0.050064459,-0.996036291,-0.072626613,0.146362168,-0.011436894,2.658567667,0.703935683,0.814401925
1706626596.170215,1880.000000000,1703862879.333875895,0.000000000,0.000000000,0.000000000,0.000000000,3.059386730,0.704560399,0.815499961,,,,,,,,,,,,
1706626596.172984,,,,,,,,,,0.000000000,1703862879.993962526,-0.014974196,3.040663898,-0.049767073,-0.996100724,-0.071994804,0.145058655,-0.011113123,2.658557892,0.703906953,0.814384639
1706626596.180209,,,,,,,,,,0.000000000,1703862880.003722668,-0.014037096,3.040535304,-0.049866989,-0.996111274,-0.071850516,0.144722504,-0.010642674,2.658541679,0.703925967,0.814399242
1706626596.190016,,,,,,,,,,0.000000000,1703862880.013660669,-0.014542590,3.039819642,-0.050206363,-0.996100843,-0.071716741,0.144487580,-0.010914232,2.658552647,0.703948259,0.814450443
1706626596.192442,,,,,,,,,,0.000000000,1703862880.013801336,-0.014871004,3.039141653,-0.050528634,-0.996060550,-0.072018541,0.145118006,-0.011118026,2.658547878,0.703920186,0.814415157
1706626596.202022,,,,,,,,,,0.000000000,1703862880.023568153,-0.014721718,3.040322434,-0.049948163,-0.996104658,-0.071832098,0.144722865,-0.010991289,2.658563137,0.703931272,0.814414859
1706626596.205124,,,,,,,,,,0.000000000,1703862880.023731470,-0.014740922,3.038962582,-0.050625220,-0.996073604,-0.071780153,0.144634599,-0.011047456,2.658555984,0.703936875,0.814450562
1706626596.210642,,,,,,,,,,0.000000000,1703862880.033714771,-0.014300113,3.038944232,-0.050648518,-0.996061862,-0.071959861,0.144972748,-0.010837153,2.658551931,0.703904808,0.814446032
1706626596.213236,,,,,,,,,,0.000000000,1703862880.033825159,-0.014618073,3.038861992,-0.050678842,-0.996065199,-0.071867168,0.144804050,-0.010994181,2.658554554,0.703921676,0.814447284
1706626596.220641,,,,,,,,,,0.000000000,1703862880.043973207,-0.014061489,3.039274217,-0.050495058,-0.996085405,-0.071761616,0.144558778,-0.010695990,2.658546448,0.703909039,0.814423323
1706626596.223025,,,,,,,,,,0.000000000,1703862880.044158936,-0.013982337,3.039213298,-0.050530490,-0.996098995,-0.071555905,0.144142291,-0.010648236,2.658535719,0.703917980,0.814439952
1706626596.230277,,,,,,,,,,0.000000000,1703862880.053657532,-0.191600066,-0.045471858,-0.993698359,0.027571244,0.094322890,-0.104034865,0.053913839,2.655103207,0.701932967,0.846280575
1706626596.232766,,,,,,,,,,0.000000000,1703862880.053830862,-0.191123862,-0.044066971,-0.993703663,0.026925329,0.094105810,-0.105393383,0.054518532,2.655107737,0.701952875,0.846299112
1706626596.239856,1881.000000000,1703862879.334189415,0.000000000,0.000000000,0.000000000,0.000000000,3.059386730,0.704560399,0.815499961,,,,,,,,,,,,
1706626596.242281,,,,,,,,,,0.000000000,1703862880.063591719,-0.191528303,-0.045254571,-0.993677020,0.027509835,0.094278991,-0.105060037,0.054412313,2.655102968,0.701922596,0.846268833
1706626596.250482,,,,,,,,,,0.000000000,1703862880.073679924,-0.014357091,3.038653105,-0.050790414,-0.996047556,-0.072050050,0.145159987,-0.010880756,2.658549786,0.703959107,0.814451516
1706626596.252924,,,,,,,,,,0.000000000,1703862880.074168205,-0.014971395,3.040065548,-0.050062485,-0.996068299,-0.072232395,0.145542257,-0.011145372,2.658570290,0.703942418,0.814408839
1706626596.260437,,,,,,,,,,0.000000000,1703862880.084030628,-0.014497253,3.038989449,-0.050621301,-0.996078849,-0.071729824,0.144520601,-0.010922258,2.658542633,0.703942478,0.814446509
1706626596.275560,,,,,,,,,,0.000000000,1703862880.093766928,-0.016259709,3.040179970,-0.049954411,-0.996043622,-0.072543249,0.146231255,-0.011800038,2.658585787,0.703904688,0.814386547
1706626596.283531,,,,,,,,,,0.000000000,1703862880.103627682,-0.015376553,3.040352289,-0.049905099,-0.996076047,-0.072205573,0.145505937,-0.011335882,2.658567667,0.703920901,0.814397275
1706626596.285717,,,,,,,,,,0.000000000,1703862880.103801727,-0.014870223,3.039437853,-0.050380278,-0.996062398,-0.072097912,0.145274031,-0.011110901,2.658547878,0.703938723,0.814435661
1706626596.289428,,,,,,,,,,0.000000000,1703862880.113537788,-0.014569817,3.040186647,-0.050020967,-0.996099412,-0.071866639,0.144785907,-0.010922094,2.658538103,0.703931987,0.814413011
1706626596.291538,,,,,,,,,,0.000000000,1703862880.113637209,-0.015479350,3.040024587,-0.050061718,-0.996049583,-0.072448440,0.146002622,-0.011411338,2.658578873,0.703929365,0.814407468
1706626596.301150,,,,,,,,,,0.000000000,1703862880.123822451,-0.014869703,3.040107044,-0.050048824,-0.996091008,-0.071939550,0.144948566,-0.011078374,2.658551455,0.703927696,0.814389467
1706626596.303808,,,,,,,,,,0.000000000,1703862880.124002218,-0.014628890,3.036970928,-0.051618919,-0.996008277,-0.071975335,0.145042756,-0.011073677,2.658553123,0.703912079,0.814443946
1706626596.311833,1882.000000000,1703862879.974500895,0.000000000,0.000000000,0.000000000,0.000000000,3.059386730,0.704560399,0.815499961,,,,,,,,,,,,
1706626596.314871,,,,,,,,,,0.000000000,1703862880.134198427,-0.014896707,3.039403591,-0.050398566,-0.996075690,-0.071901262,0.144880921,-0.011115420,2.658550978,0.703927577,0.814413369
1706626596.320398,,,,,,,,,,0.000000000,1703862880.143744469,-0.014813750,3.038821944,-0.050691511,-0.996062756,-0.071877465,0.144835328,-0.011093861,2.658545494,0.703933716,0.814453065
1706626596.330539,,,,,,,,,,0.000000000,1703862880.153653145,-0.015094145,3.039517584,-0.050329480,-0.996045172,-0.072353140,0.145797167,-0.011232707,2.658579111,0.703942716,0.814441562
1706626596.333166,,,,,,,,,,0.000000000,1703862880.153913498,-0.014850061,3.039780454,-0.050211567,-0.996078730,-0.071994200,0.145060932,-0.011083160,2.658547640,0.703926206,0.814392149
1706626596.340173,,,,,,,,,,0.000000000,1703862880.163682461,-0.015244544,3.038410250,-0.050872087,-0.995995402,-0.072638050,0.146389631,-0.011362731,2.658578396,0.703924477,0.814428151
1706626596.350292,,,,,,,,,,0.000000000,1703862880.173583269,-0.014664749,3.039170561,-0.050519254,-0.996045411,-0.072249234,0.145570205,-0.011025692,2.658565998,0.703928828,0.814425588
1706626596.353287,,,,,,,,,,0.000000000,1703862880.173750162,-0.016492332,3.041309428,-0.049380481,-0.996053457,-0.072786666,0.146718470,-0.011886946,2.658599854,0.703947008,0.814407468
1706626596.360276,,,,,,,,,,0.000000000,1703862880.183757305,-0.014916142,3.038318421,-0.050933637,-0.996017992,-0.072310895,0.145716602,-0.011185392,2.658554316,0.703891397,0.814432561
1706626596.362670,,,,,,,,,,0.000000000,1703862880.183907270,-0.014072583,3.038355596,-0.050952058,-0.996061444,-0.071766630,0.144579291,-0.010734999,2.658538103,0.703900278,0.814451814
1706626596.370185,,,,,,,,,,0.000000000,1703862880.193682432,-0.014568317,3.038446278,-0.050888538,-0.996060312,-0.071788982,0.144649054,-0.010980397,2.658553123,0.703927159,0.814455330
1706626596.373429,,,,,,,,,,0.000000000,1703862880.193804264,-0.014910202,3.038291314,-0.050949592,-0.996031761,-0.072111286,0.145315789,-0.011173204,2.658556223,0.703930438,0.814448237
1706626596.381911,1883.000000000,1703862879.983648062,0.000000000,0.000000000,0.000000000,0.000000000,3.059386730,0.704560399,0.815499961,,,,,,,,,,,,
1706626596.386083,,,,,,,,,,0.000000000,1703862880.203854799,-0.014419177,3.039043028,-0.050597049,-0.996077776,-0.071768723,0.144594061,-0.010883313,2.658535480,0.703946412,0.814443886
1706626596.390311,,,,,,,,,,0.000000000,1703862880.213851213,-0.014858065,3.039293117,-0.050454106,-0.996067226,-0.071980752,0.145039768,-0.011104154,2.658561230,0.703923345,0.814442754
1706626596.420830,,,,,,,,,,0.000000000,1703862880.223881960,-0.014618176,3.038245997,-0.050985564,-0.996049225,-0.071869448,0.144815426,-0.011016658,2.658549070,0.703923941,0.814446747
1706626596.426876,,,,,,,,,,0.000000000,1703862880.243569374,-0.014893848,3.040083479,-0.050058011,-0.996079445,-0.072088443,0.145249039,-0.011098766,2.658542633,0.703910351,0.814413249
1706626596.441288,,,,,,,,,,0.000000000,1703862880.254081011,-0.015533238,3.040212688,-0.049966533,-0.996057212,-0.072407834,0.145921684,-0.011429340,2.658557653,0.703901052,0.814377725
1706626596.450815,,,,,,,,,,0.000000000,1703862880.263736010,-0.014949539,3.040401368,-0.049896762,-0.996081471,-0.072169483,0.145411062,-0.011119085,2.658549786,0.703905702,0.814392447
1706626596.455284,,,,,,,,,,0.000000000,1703862880.273909092,-0.014844758,3.039786376,-0.050210729,-0.996091366,-0.071822047,0.144714928,-0.011071620,2.658534765,0.703902245,0.814438939
1706626596.463570,,,,,,,,,,0.000000000,1703862880.283532858,-0.014517097,3.041344380,-0.049447656,-0.996137440,-0.071746014,0.144528393,-0.010847867,2.658539772,0.703893840,0.814412057
1706626596.468655,,,,,,,,,,0.000000000,1703862880.283597708,-0.015114984,3.039344165,-0.050419431,-0.996068656,-0.071966380,0.145023620,-0.011229858,2.658533812,0.703922272,0.814463496
1706626596.472823,,,,,,,,,,0.000000000,1703862880.293859482,-0.014210836,3.040806479,-0.049730707,-0.996151686,-0.071374603,0.143772946,-0.010695850,2.658527613,0.703913152,0.814423561
1706626596.484192,,,,,,,,,,0.000000000,1703862880.303753138,-0.190979443,-0.044022488,-0.993682802,0.026948309,0.094021298,-0.106429578,0.055030052,2.655120373,0.701871276,0.846249282
1706626596.488492,,,,,,,,,,0.000000000,1703862880.303883791,-0.015170188,3.038643507,-0.050765071,-0.996042490,-0.072075576,0.145253669,-0.011288399,2.658556938,0.703947008,0.814461350
1706626596.493413,,,,,,,,,,0.000000000,1703862880.313664198,-0.014858308,3.038664152,-0.050767254,-0.996050715,-0.071984768,0.145054870,-0.011127294,2.658542395,0.703925788,0.814454496
1706626596.504071,1884.000000000,1703862879.983857155,0.000000000,0.000000000,0.000000000,0.000000000,3.059386730,0.704560399,0.815499961,,,,,,,,,,,,
1706626596.508834,,,,,,,,,,0.000000000,1703862880.324210882,-0.015029094,3.038590159,-0.050799083,-0.996056199,-0.071874395,0.144842964,-0.011209627,2.658561230,0.703892052,0.814459801
1706626596.513815,,,,,,,,,,0.000000000,1703862880.333711624,-0.015301644,3.040063759,-0.050052896,-0.996077716,-0.072085731,0.145264740,-0.011302958,2.658559322,0.703915596,0.814409852
1706626596.525472,,,,,,,,,,0.000000000,1703862880.343619585,-0.014876335,3.040004615,-0.050097372,-0.996073902,-0.072138198,0.145348920,-0.011095389,2.658562183,0.703918695,0.814420462
1706626596.533599,,,,,,,,,,0.000000000,1703862880.353761435,-0.014896429,3.041095516,-0.049556568,-0.996122181,-0.071851589,0.144762353,-0.011051513,2.658549309,0.703897953,0.814396501
1706626596.542982,,,,,,,,,,0.000000000,1703862880.363593578,-0.015679887,3.040453785,-0.049841862,-0.996067762,-0.072338685,0.145787583,-0.011490300,2.658572674,0.703910291,0.814423144
1706626596.548221,,,,,,,,,,0.000000000,1703862880.363687754,-0.014974262,3.040668582,-0.049766194,-0.996110260,-0.071864218,0.144796414,-0.011106462,2.658557415,0.703908682,0.814422131
1706626596.553255,,,,,,,,,,0.000000000,1703862880.373951197,-0.014585303,3.040887737,-0.049673337,-0.996130764,-0.071676835,0.144397935,-0.010894977,2.658543587,0.703921854,0.814408183
1706626596.562826,,,,,,,,,,0.000000000,1703862880.383694172,-0.014962825,3.039540721,-0.050326217,-0.996068299,-0.072047420,0.145176285,-0.011150849,2.658531189,0.703935504,0.814445078
1706626596.573555,,,,,,,,,,0.000000000,1703862880.393837214,-0.014219826,3.039824912,-0.050216712,-0.996110082,-0.071606286,0.144249143,-0.010747312,2.658518076,0.703926980,0.814440906
1706626596.583859,,,,,,,,,,0.000000000,1703862880.404170513,-0.015101267,3.038771864,-0.050705105,-0.996055126,-0.071949728,0.144995941,-0.011242917,2.658552408,0.703909814,0.814448893
1706626596.592669,,,,,,,,,,0.000000000,1703862880.413876295,-0.015603314,3.040447312,-0.049849015,-0.996074915,-0.072242565,0.145590734,-0.011447495,2.658557892,0.703891933,0.814400136
1706626596.601028,,,,,,,,,,0.000000000,1703862880.423716068,-0.015942564,3.041801553,-0.049160548,-0.996097624,-0.072379544,0.145867383,-0.011574330,2.658569098,0.703894496,0.814398110
1706626596.604915,,,,,,,,,,0.000000000,1703862880.423911333,-0.014749031,3.040216897,-0.049996786,-0.996082723,-0.072097637,0.145258586,-0.011022075,2.658545494,0.703880072,0.814415514
1706626596.610460,,,,,,,,,,0.000000000,1703862880.433638334,-0.015556346,3.041072111,-0.049538210,-0.996081948,-0.072364248,0.145825508,-0.011407349,2.658576727,0.703885257,0.814387202
1706626596.614361,,,,,,,,,,0.000000000,1703862880.433736086,-0.015610425,3.039994933,-0.050071858,-0.996049702,-0.072430313,0.145973292,-0.011476954,2.658563614,0.703913212,0.814421356
1706626596.620188,,,,,,,,,,0.000000000,1703862880.443738699,-0.015380731,3.039755643,-0.050201401,-0.996056616,-0.072262637,0.145627543,-0.011362555,2.658550739,0.703919947,0.814417660
1706626596.630773,,,,,,,,,,0.000000000,1703862880.453625441,-0.015095907,3.040379574,-0.049903892,-0.996091068,-0.072022222,0.145123114,-0.011185581,2.658533573,0.703926146,0.814406037
1706626596.635203,,,,,,,,,,0.000000000,1703862880.453925848,-0.191264487,-0.045497623,-0.993686199,0.027624333,0.094141170,-0.105067420,0.054425117,2.655128956,0.701867819,0.846265495
1706626596.640413,,,,,,,,,,0.000000000,1703862880.463807344,-0.014268605,3.039373403,-0.050437350,-0.996082246,-0.071831159,0.144708042,-0.010799344,2.658540010,0.703916550,0.814450622
1706626596.651289,,,,,,,,,,0.000000000,1703862880.473744631,-0.191290389,-0.046440724,-0.993660152,0.028113749,0.094122343,-0.105496547,0.054682944,2.655107260,0.701846778,0.846247256
1706626596.654008,,,,,,,,,,0.000000000,1703862880.474438190,-0.014426293,3.039064104,-0.050584123,-0.996063948,-0.071967177,0.144992676,-0.010896182,2.658549309,0.703911781,0.814448178
1706626596.658693,1885.000000000,1703862879.993580103,0.000000000,0.000000000,0.000000000,0.000000000,3.059386730,0.704560399,0.815499961,,,,,,,,,,,,
1706626596.661862,,,,,,,,,,0.000000000,1703862880.484656096,-0.014716450,3.039803767,-0.050205842,-0.996086299,-0.071905337,0.144875361,-0.011011123,2.658547401,0.703921437,0.814436913
